stop_id,stop_code,stop_name,stop_lat,stop_lon
100004,100004,JOSEPH E LOWERY BLVD,33.752636,-84.417759
100010,100010,JOSEPH E LOWERY BLVD ,33.749364,-84.417742
100016,100016,W END AVE SW ,33.744255,-84.416588
100030,100030,ATLANTA STUDENT MOVEMENT BLVD ,33.749264,-84.416015
100035,100035,FAIR ST SW ,33.748985,-84.418059
100042,100042,FAIR ST SW,33.749088,-84.423135
100050,100050,MARTIN LUTHER KING J,33.75369,-84.432088
100052,100052,MARTIN LUTHER KING J DR SW,33.753549,-84.429794
100058,100058,HOLDERNESS ST SW ,33.748933,-84.426351
100061,100061,HOLDERNESS ST SW,33.747532,-84.426611
100063,100063,WESTVIEW DR SW,33.747154,-84.427994
100070,100070,WESTVIEW DR SW ,33.74728,-84.432645
100074,100074,LUCILE AVE SW ,33.742268,-84.418137
100124,100124,MARTIN L KING JR DR NW ,33.753645,-84.42959
100132,100132,MARTIN L KING JR DR ,33.75384,-84.424968
100137,100137,MARTIN LUTHER KING J DR ,33.754709,-84.41994
100154,100154,FAIR ST,33.749077,-84.425298
100164,100164,MARTIN LUTHER KING J DR,33.754747,-84.421316
100166,100166,LUCILE AVE ,33.742318,-84.426768
101002,101002,LEE ST SW ,33.744253,-84.414009
101006,101006,LEE ST SW,33.743338,-84.413776
101010,101010,PETERS ST SW,33.749214,-84.399712
101030,101030,PETERS ST SW ,33.748085,-84.401161
101092,101092,WHITEHALL ST SW ,33.746006,-84.399132
101098,101098,WHITEHALL ST SW,33.7453,-84.400551
101108,101108,MCDANIEL ST SW ,33.741343,-84.402897
101135,101135,NORTHSIDE DR ,33.748055,-84.405154
101137,101137,NORTHSIDE DR SW ,33.746084,-84.406794
101139,101139,MARTIN LUTHER J DR ,33.754609,-84.414402
101460,101460,MCDANIEL ST ,33.743499,-84.40391
101468,101468,W END AVE ,33.744607,-84.414342
102005,102005,MEMORIAL DR SE ,33.746876,-84.385771
102011,102011,HILL ST SE ,33.745662,-84.379324
102022,102022,PEACHTREE ST SW ,33.750864,-84.393047
102026,102026,PRYOR ST SW,33.747202,-84.39437
102028,102028,PRYOR ST SW ,33.748089,-84.393686
102032,102032,PRYOR ST ,33.751593,-84.391066
102042,102042,DECATUR ST SE ,33.753105,-84.38757
102046,102046,DECATUR ST ,33.75143,-84.384945
102051,102051,JESSE HILL JR DR SE ,33.750645,-84.38423
102054,102054,CENTRAL AVE SW,33.742566,-84.393344
102062,102062,MARTIN LUTHER KING J DR SW ,33.75141,-84.39075
102074,102074,FORSYTH ST SW,33.750585,-84.395177
102078,102078,TRINITY AVE SW ,33.750513,-84.396264
102110,102110,WINDSOR ST SW,33.743068,-84.398382
102124,102124,AUBURN AVE NE ,33.755507,-84.382255
102148,102148,MITCHELL ST SW ,33.750292,-84.391905
102150,102150,CAPITOL SQ SW ,33.748217,-84.38812
102152,102152,MARTIN L KING J DR ,33.750043,-84.388393
102178,102178,EDGEWOOD AVE SE ,33.754539,-84.38419
102180,102180,EDGEWOOD AVE ,33.754513,-84.386169
102222,102222,WINDSOR ST SW ,33.743098,-84.398064
102226,102226,MARIETTA ST NW ,33.754992,-84.390659
102248,102248,ALABAMA ST ,33.753183,-84.391353
102252,102252,HANK AARON DR SE ,33.7416,-84.387733
102253,102253,CAPITOL AVE ,33.746314,-84.387667
102289,102289,FORSYTH ST ,33.754015,-84.392419
102296,102296,FORSYTH ST SW ,33.751571,-84.394319
102298,102298,AUBURN AVE ,33.755584,-84.387626
102308,102308,PEACHTREE ST ,33.75425,-84.389767
102310,102310,PEACHTREE ST NE ,33.754599,-84.389636
102526,102526,BELL ST SE ,33.752715,-84.379623
102532,102532,SPRING ST,33.747384,-84.397702
102534,102534,MITCHELL ST ,33.750915,-84.393191
102540,102540,WALL ST ,33.753229,-84.389211
102544,102544,PRYOR ST,33.744606,-84.39452
102546,102546,CENTRAL AVE,33.743984,-84.393218
102554,102554,TED TURNER DR SW ,33.749164,-84.398123
103032,103032,JACKSON ST SE ,33.752351,-84.374122
103060,103060,BOULEVARD NE ,33.755851,-84.37208
103090,103090,MEMORIAL DR SE,33.746697,-84.365607
103168,103168,MEMORIAL DR,33.74685,-84.37136
103170,103170,MEMORIAL DR ,33.746836,-84.375825
103200,103200,GRANT ST ,33.747015,-84.376695
103900,103900,KING MEMORIAL STATION,33.749978,-84.375881
104012,104012,MORELAND AVE SE ,33.741948,-84.349267
105002,105002,FLAT SHOALS AVE SE ,33.739058,-84.344049
105016,105016,FLAT SHOALS RD SE,33.729303,-84.328669
105038,105038,GLENWOOD AVE SE,33.739963,-84.334886
105074,105074,GLENWOOD AVE SE ,33.739928,-84.330071
105124,105124,BOULDERCREST DR SE ,33.72686,-84.33315
105172,105172,HOSEA L WILLIAMS DR ,33.751125,-84.314222
105174,105174,HOSEA L WILLIAMS DR NE ,33.751144,-84.316101
105200,105200,HOSEA L WILLIAMS DR SE ,33.753443,-84.338497
105202,105202,MAYSON AVE NE,33.755368,-84.338595
105260,105260,GLENWOOD AVE ,33.740002,-84.314038
105302,105302,LA FRANCE ST ,33.760443,-84.342532
105370,105370,MAYSON AVE ,33.753551,-84.338649
105464,105464,GLENWOOD AVE,33.740159,-84.343114
105476,105476,FLAT SHOALS AVE ,33.739864,-84.345011
105517,105517,E LAKE BLVD ,33.743794,-84.314723
106002,106002,MCAFEE RD ,33.731761,-84.293775
106040,106040,MCAFEE RD,33.73201,-84.28008
106082,106082,CANDLER RD,33.748785,-84.292383
106092,106092,CANDLER RD ,33.740809,-84.289137
106212,106212,GLENWOOD RD,33.738875,-84.289475
106218,106218,GLENWOOD RD ,33.738722,-84.287094
106240,106240,E LAKE DR ,33.754742,-84.301773
106242,106242,E LAKE DR NE,33.75264,-84.301842
106244,106244,E LAKE DR SE,33.751365,-84.301481
106268,106268,FAIRLEE DR,33.747026,-84.277763
106270,106270,LINE ST ,33.745533,-84.280052
106272,106272,WHITE OAK DR ,33.742936,-84.279625
106284,106284,E LAKE DR,33.752258,-84.301216
106292,106292,2ND AVE ,33.752022,-84.309883
106296,106296,2ND AVE SE ,33.749478,-84.309809
106324,106324,TILSON RD ,33.72951,-84.281828
106390,106390,CANDLER ST,33.755059,-84.291718
106392,106392,S CANDLER ST ,33.756223,-84.291402
106394,106394,CANDLER ST ,33.753878,-84.291914
107012,107012,SHAMROCK DR ,33.730348,-84.257353
107022,107022,GLENDALE DR ,33.72848,-84.26318
107054,107054,PEACHCREST RD ,33.755237,-84.250775
107090,107090,COLUMBIA DR,33.740803,-84.253128
107092,107092,COLUMBIA DR ,33.739433,-84.253006
107214,107214,CARTER RD,33.749996,-84.276215
107226,107226,CARTER RD ,33.747866,-84.275882
107227,107227,BELVEDERE LN ,33.750282,-84.273533
107228,107228,SAN GABRIEL AVE ,33.745294,-84.268514
107230,107230,S COLUMBIA DR ,33.755474,-84.26947
107262,107262,SNAPFINGER RD ,33.733182,-84.251112
107266,107266,SNAPFINGER RD,33.732677,-84.245964
107302,107302,CAPISTRANA PL ,33.742466,-84.269147
108052,108052,COVINGTON HWY,33.755926,-84.237566
108064,108064,REDWING CIR,33.750768,-84.233897
108066,108066,REDWING CIR ,33.750622,-84.23081
108074,108074,COVINGTON HWY ,33.749544,-84.226594
108124,108124,WESLEY CHAPEL RD,33.727219,-84.213844
108130,108130,WESLEY CHAPEL RD ,33.733707,-84.213989
109005,109005,S HAIRSTON RD ,33.74513,-84.19593
110002,110002,S STONE MOUNTAIN LITHONIA RD ,33.74622,-84.138809
110006,110006,REDAN RD ,33.747307,-84.14546
110008,110008,REDAN RD,33.749,-84.14908
112174,112174,OAK ST SW ,33.740652,-84.417712
113004,113004,OGLETHORPE AVE SW,33.735853,-84.419238
113008,113008,LAWTON ST SW,33.734668,-84.4234
113010,113010,LAWTON ST SW ,33.733444,-84.423485
113014,113014,DONNELLY AVE SW,33.733018,-84.42681
113016,113016,DONNELLY AVE SW ,33.736468,-84.432456
113032,113032,DONNELLY AVE,33.736541,-84.432875
113064,113064,RALPH D ABERNATHY BLVD SW ,33.738064,-84.41835
113068,113068,RALPH DAVID ABERNATH BLVD,33.73811,-84.420235
113084,113084,RALPH D ABERNATHY BLVD ,33.739109,-84.432259
113086,113086,OGLETHORPE AVE ,33.735917,-84.417404
113120,113120,RALPH DAVID ABERNATH BLVD SW,33.737913,-84.418205
113142,113142,MERRILL AVE SW,33.728714,-84.425438
113148,113148,OAKLAND DR SW,33.728551,-84.427152
113166,113166,RALPH D ABERNATH BLVD SW ,33.738338,-84.416122
114006,114006,YORK AVE SW ,33.737091,-84.415588
114056,114056,LEE ST,33.738354,-84.414299
114068,114068,METROPOLITAN PKY SW,33.727154,-84.408112
114080,114080,METROPOLITAN PKY,33.737141,-84.408295
114104,114104,METROPOLITAN PKY SW ,33.737442,-84.407921
114114,114114,MCDANIEL ST SW,33.738148,-84.401677
114152,114152,OGLETHORPE AVE SW ,33.735793,-84.415206
114170,114170,WINDSOR ST,33.73859,-84.39812
114900,114900,WEST END STATION,33.735899,-84.413542
115038,115038,COOPER ST SW,33.73637,-84.397077
115048,115048,HENDRIX AVE SW,33.73229,-84.393813
115052,115052,PRYOR RD SW,33.72734,-84.392918
115084,115084,GEORGIA AVE SE ,33.736779,-84.386046
115102,115102,ORMOND ST SE,33.731716,-84.386299
115106,115106,ATLANTA AVE SE ,33.730353,-84.384465
115132,115132,GEORGIA AVE SE,33.736807,-84.383872
115144,115144,COOPER ST ,33.73656,-84.39695
115152,115152,COOPER ST,33.73241,-84.397018
115164,115164,HANK AARON DR ,33.731434,-84.387987
115166,115166,HANK AARON DR,33.731518,-84.387779
115180,115180,HANK AARON DR SW,33.726645,-84.388059
115182,115182,HANK AARON DR SW ,33.726421,-84.387961
115216,115216,ORMOND ST,33.731809,-84.389379
115218,115218,POLLARD BLVD ,33.73564,-84.390667
115220,115220,POLLARD BLVD,33.732963,-84.390825
116004,116004,BOULEVARD SE,33.73855,-84.368222
116024,116024,BOULEVARD SE ,33.740591,-84.36806
116040,116040,CONFEDERATE AVE SE,33.72756,-84.363228
116054,116054,HILL ST SE,33.725558,-84.378669
116072,116072,CHEROKEE AVE ,33.73232,-84.37354
116086,116086,CHEROKEE AVE SE ,33.734798,-84.373556
116132,116132,ATLANTA AVE ,33.730161,-84.373325
117004,117004,MORELAND AVE SE,33.726524,-84.349709
117122,117122,MORELAND AVE,33.728714,-84.349251
117131,117131,MORELAND AVE NE ,33.755599,-84.349119
118002,118002,BOAT ROCK RD SW ,33.723916,-84.573987
118005,118005,LAGRANGE BLVD,33.71972,-84.59055
118010,118010,BOAT ROCK RD ,33.724538,-84.582392
118012,118012,FULTON INDUSTRIAL BLVD SW ,33.727439,-84.578863
118036,118036,FULTON INDUSTRIAL BLVD,33.713367,-84.58845
118040,118040,FULTON IND BLVD ,33.710708,-84.591185
120012,120012,CASCADE RD SW,33.72552,-84.515609
120018,120018,CASCADE RD SW ,33.724076,-84.511954
120024,120024,KIMBERLY RD ,33.719733,-84.520839
120026,120026,KIMBERLY RD,33.725181,-84.515304
120030,120030,CASCADE AVE SW,33.723193,-84.504497
120032,120032,CASCADE RD,33.723303,-84.506875
120035,120035,CASCADE RD ,33.723908,-84.510693
120036,120036,FAIRBURN RD SW ,33.7239,-84.510399
120038,120038,FAIRBURN RD,33.719956,-84.507989
120048,120048,FAIRBURN RD SW,33.708176,-84.507454
120058,120058,BARGE RD SW,33.69849,-84.507172
120090,120090,COUNTY LINE RD SW ,33.69685,-84.535397
120092,120092,COUNTY LINE RD SW,33.69989,-84.536271
120102,120102,NISKEY LAKE RD ,33.708348,-84.532619
120106,120106,NISKEY LAKE RD SW,33.706569,-84.529189
120246,120246,FAIRBURN RD ,33.72297,-84.50968
121004,121004,BENJAMIN E MAYS DR ,33.725326,-84.470487
121005,121005,BENJAMIN E MAYS DR SW ,33.727836,-84.475067
121010,121010,CAMPBELLTON RD SW ,33.698657,-84.48254
121012,121012,CAMPBELLTON RD SW,33.700771,-84.479286
121013,121013,N HAIRSTON RD ,33.805731,-84.193528
121017,121017,N HAIRSTON RD,33.813482,-84.193548
121042,121042,LYNHURST DR SW,33.726314,-84.488149
121074,121074,HARBIN RD SW,33.715874,-84.484074
121086,121086,LANDRUM DR SW,33.706367,-84.483957
121088,121088,LANDRUM DR ,33.706398,-84.486244
121090,121090,CHILDRESS DR SW,33.704643,-84.48794
121100,121100,MT GILEAD RD SW,33.698286,-84.494674
121103,121103,MT GILEAD RD,33.698207,-84.494228
121115,121115,HARBIN RD,33.709565,-84.482236
121118,121118,LANDRUM DR SW ,33.706215,-84.484239
121128,121128,PANTHER TRL SW,33.698129,-84.486221
121134,121134,MT GILEAD RD SW ,33.698248,-84.496488
121180,121180,PANTHER TRL,33.698253,-84.489794
122003,122003,CAMPBELLTON RD ,33.705557,-84.459225
122005,122005,CAMPBELLTON RD,33.706608,-84.457223
122006,122006,BEECHER RD SW ,33.723053,-84.464232
122008,122008,BEECHER RD,33.725934,-84.463859
122009,122009,BEECHER RD SW,33.725084,-84.464097
122054,122054,DELOWE DR SW ,33.706365,-84.457295
122056,122056,MYRTLE DR ,33.705419,-84.455055
122084,122084,STANTON RD,33.710983,-84.443977
122104,122104,STANTON RD ,33.701416,-84.447683
122110,122110,ALISON CT,33.700165,-84.45118
122114,122114,ALISON CT ,33.700736,-84.455612
122120,122120,DELOWE DR ,33.705395,-84.457619
122128,122128,ALISON CT SW,33.700657,-84.454743
122166,122166,SANDTOWN RD SW,33.717468,-84.445198
122168,122168,WESTRIDGE RD,33.717879,-84.446937
122170,122170,WESTRIDGE RD SW,33.715991,-84.446793
122174,122174,VENETIAN DR SW,33.714737,-84.448578
122202,122202,CENTRA VILLA DR SW ,33.707611,-84.455548
122228,122228,CASCADE AVE SW ,33.726555,-84.445179
122296,122296,WESTMONT RD SW,33.714802,-84.437569
122302,122302,WESTMONT RD SW ,33.720306,-84.437563
122306,122306,AVON AVE SW,33.722446,-84.436512
122386,122386,BEECHER RD ,33.726758,-84.463556
122396,122396,AVON AVE,33.722438,-84.435512
123016,123016,MURPHY AVE SW,33.716536,-84.424626
123018,123018,LANGSTON AVE SW,33.713715,-84.424097
123094,123094,SYLVAN RD SW,33.71258,-84.418178
123128,123128,ALMONT DR SW,33.725906,-84.428345
123134,123134,WYLAND DR SW,33.725128,-84.430843
123158,123158,ALMONT DR,33.725838,-84.427355
123202,123202,LANGSTON AVE,33.713926,-84.424417
123900,123900,OAKLAND CITY STATION,33.717407,-84.426301
124086,124086,LINCOLN ST SW,33.712692,-84.399739
124098,124098,MCDANIEL ST,33.723168,-84.401778
125002,125002,RIDGE AVE SW ,33.72631,-84.392371
125003,125003,WEYMAN AVE SW ,33.724961,-84.390471
125004,125004,WEYMAN AVE SW,33.724989,-84.388406
125010,125010,MILTON AVE SE,33.72309,-84.38548
125030,125030,RIDGE AVE SW,33.72641,-84.392156
125036,125036,PRYOR RD SW ,33.722253,-84.393469
125040,125040,JONESBORO RD SE,33.714062,-84.382866
125048,125048,MCDONOUGH BLVD SE,33.720228,-84.38625
125120,125120,ARTHUR LANGFORD JR PL SW ,33.714101,-84.393862
125128,125128,LINCOLN ST SW ,33.713078,-84.397893
125214,125214,LAKEWOOD AVE SE,33.716846,-84.381439
125235,125235,PRYOR RD,33.713457,-84.393568
125236,125236,THORNTON ST,33.711725,-84.399054
125244,125244,WEYMAN AVE,33.72506,-84.388406
126026,126026,MCDONOUGH BLVD SE ,33.712691,-84.365372
126062,126062,ENGLEWOOD AVE SE ,33.721934,-84.375472
126068,126068,ENGLEWOOD AVE SE,33.721936,-84.37056
126074,126074,CUSTER AVE SE ,33.71714,-84.365287
126128,126128,ENGLEWOOD AVE,33.722127,-84.378382
127021,127021,MORELAND AVE ,33.721871,-84.3495
127022,127022,E CONFEDERATE AVE ,33.724001,-84.349609
127024,127024,E CONFEDERATE AVE SE ,33.724236,-84.350021
127056,127056,WOODLAND AVE SE ,33.713509,-84.35302
128008,128008,BOULDERVIEW DR SE ,33.704059,-84.31311
128012,128012,ROLLINGWOOD LN SE ,33.705581,-84.315608
128013,128013,ROLLINGWOOD LN SE,33.70708,-84.31498
128020,128020,FLINTWOOD DR SE,33.71035,-84.31503
128022,128022,VICKI LN SE,33.711247,-84.31501
128026,128026,WELLAND AVE SE ,33.715436,-84.311956
128028,128028,BRANNEN RD SE ,33.715526,-84.313532
128062,128062,CECILIA DR SE ,33.717097,-84.329347
128074,128074,BOULDERCREST RD SE ,33.698098,-84.324322
128076,128076,BOULDERCREST RD SE,33.701279,-84.32608
128078,128078,BOULDERCREST RDSE,33.702556,-84.326321
128082,128082,BOULDERCREST RD,33.708338,-84.329395
128104,128104,EASTLAND RD SE,33.718739,-84.33728
128108,128108,EASTLAND RD SE ,33.718516,-84.338948
128128,128128,FLAT SHOALS RD SE ,33.723377,-84.318268
128130,128130,FLAT SHOALS RD,33.724917,-84.320735
128136,128136,CUSTER AVE SE,33.717226,-84.343033
128170,128170,FLINTWOOD DR SE ,33.710254,-84.313793
128186,128186,BOULDERCREST RD ,33.702565,-84.326418
129002,129002,SOMBRERO WAY SE ,33.697909,-84.30983
129004,129004,HORSESHOE DR,33.69958,-84.30997
129005,129005,WHITES MILL RD ,33.709006,-84.294562
129006,129006,WEE KIRK RD SE ,33.70033,-84.30851
129009,129009,FLAT SHOALS RD ,33.716286,-84.306512
129010,129010,GRESHAM RD SE ,33.703235,-84.307699
129066,129066,CLIFTON SPRINGS RD,33.700852,-84.300247
129094,129094,CLIFTON CHURCH RD ,33.697514,-84.302204
129098,129098,CORRAL DR SE ,33.698893,-84.306223
129107,129107,HORSESHOE DR SE ,33.69893,-84.30991
129120,129120,TILSON RD,33.722281,-84.294731
129240,129240,BULL RUN DR,33.702747,-84.287796
129242,129242,BATTLE FORREST DR ,33.704815,-84.289686
129244,129244,BATTLE FORREST DR,33.705872,-84.290065
129284,129284,WHITES MILL RD,33.707932,-84.295584
130002,130002,KENNARD LN ,33.726035,-84.259345
130004,130004,GREEN FORREST DR ,33.722749,-84.258989
130050,130050,RAINBOW WAY ,33.71137,-84.271179
130084,130084,PANTHERSVILLE RD,33.700233,-84.270437
130100,130100,PANTHERSVILLE RD ,33.701649,-84.269608
130104,130104,RAINBOW DR,33.709295,-84.244115
130112,130112,RAINBOW DR ,33.711852,-84.252631
130198,130198,SOUTH DEKALB MALL (MACY'S),33.709874,-84.272898
130200,130200,SOUTH DEKALB MALL (PICADILLY),33.708133,-84.273011
131002,131002,SNAPFINGER WOODS DR,33.710163,-84.207993
131014,131014,PLEASANTWOOD DR,33.708697,-84.214324
131056,131056,SNAPFINGER WOODS DR ,33.715279,-84.217153
132062,132062,MILLER RD,33.7067,-84.181225
132126,132126,MINOLA DR,33.701064,-84.183818
132134,132134,MINOLA DR ,33.700959,-84.172052
132142,132142,W FAIRINGTON PKWY,33.69913,-84.16653
133006,133006,PANOLA RD ,33.707134,-84.169258
133008,133008,PANOLA RD,33.705357,-84.169937
133012,133012,FAIRINGTON RD,33.700771,-84.171211
133014,133014,FAIRINGTON RD ,33.702504,-84.150049
133016,133016,HILLANDALE DR ,33.703789,-84.145561
133022,133022,HILLANDALE DR,33.705687,-84.142231
133136,133136,DEKALB MEDICAL - HILLANDALE,33.705071,-84.148599
134010,134010,EVANS MILL RD ,33.70457,-84.11474
134014,134014,MAIN ST ,33.70916,-84.110551
134016,134016,MAX CLELAND BLVD ,33.710866,-84.108797
134020,134020,SWIFT ST ,33.712714,-84.106358
134050,134050,OLD HILLANDALE DR ,33.704124,-84.130615
134056,134056,STONE MOUNTAIN ST ,33.716031,-84.107864
134058,134058,STONE MOUNTAIN ST,33.718248,-84.107967
134088,134088,MALL AT STONECREST,33.699076,-84.099258
134090,134090,MALL PKY ,33.69915,-84.11722
134112,134112,MALL PKWY ,33.69861,-84.108081
136012,136012,LANGSTON AVE SW ,33.704321,-84.419404
136033,136033,SYLVAN RD SW ,33.702832,-84.418101
136084,136084,ASTOR AVE ,33.701545,-84.425922
136086,136086,ASTOR AVE,33.701617,-84.425824
136104,136104,ASTOR AVE SW,33.701502,-84.423901
136114,136114,HARDEE AVE ,33.699697,-84.430656
136901,136901,LAKEWOOD STATION,33.700649,-84.429541
137016,137016,ASHWOOD AVE SW,33.705253,-84.39933
137020,137020,BOND DR SW,33.70564,-84.40127
137024,137024,AMAL DR SW,33.707696,-84.400637
137026,137026,AMAL DR SW ,33.707446,-84.399115
137032,137032,DOGWOOD DR ,33.671857,-84.408465
137044,137044,METROPOLITAN PKWY SW ,33.707047,-84.407948
137066,137066,METROPOLITAN PKY ,33.699142,-84.408356
137072,137072,LAKEWOOD WAY SW,33.700446,-84.39887
137082,137082,ATLANTA METRO COLLEGE,33.71046,-84.404105
137090,137090,METROPOLITAN PK,33.703519,-84.408214
138012,138012,LAKEWOOD AVE SW,33.699451,-84.391396
138020,138020,LAKEWOOD AVE SE ,33.703437,-84.382511
138054,138054,LAKEWOOD AVE,33.702957,-84.383667
138086,138086,PRYOR RD ,33.708783,-84.394086
138090,138090,THORNTON ST SW,33.711796,-84.399956
138092,138092,THORNTON ST SW ,33.711708,-84.397794
138106,138106,JONESBORO RD,33.707535,-84.38015
139010,139010,BROWNS MILL RD SE,33.70275,-84.376622
140008,140008,MCDONOUGH BLVD ,33.708942,-84.359405
140056,140056,FORREST PARK RD SE,33.698317,-84.35889
140058,140058,THOMASVILLE DR SE ,33.698272,-84.358716
140088,140088,TURNER RD SE,33.699833,-84.355125
140098,140098,HENRY THOMAS DR SE (W) ,33.705211,-84.355296
140156,140156,KIPLING ST SE ,33.702624,-84.352188
140176,140176,HENRY THOMAS DR SE (E) ,33.704352,-84.351059
140186,140186,ALPHARETTA HWY ,34.052054,-84.334336
140192,140192,ALPHARETTA HWY,34.066191,-84.312137
144006,144006,BARGE RD SW ,33.689326,-84.506266
144018,144018,GREENBRIAR PKWY SW ,33.682854,-84.505914
144030,144030,BARGE RD,33.694379,-84.506459
144054,144054,COUNTY LINE RD,33.692036,-84.534331
144070,144070,BUTNER RD SW,33.68182,-84.535614
144072,144072,BUTNER RD SW ,33.683132,-84.533798
144084,144084,BUTNER RD,33.689957,-84.525157
144094,144094,CAMPBELLTON,33.692148,-84.516179
144116,144116,N CAMP CREEK PKY ,33.675406,-84.511794
144120,144120,HOGAN RD SW ,33.674229,-84.506859
144126,144126,N CAMP CREEK PKWY SW ,33.675356,-84.514759
144140,144140,HOGAN RD,33.674775,-84.506527
144146,144146,HOGAN RD ,33.674368,-84.508139
144950,144950,BARGE RD PARK & RIDE,33.688804,-84.507221
145026,145026,GREENBRIAR PKWY ,33.688256,-84.489702
145034,145034,MEADOWLANE DR SW,33.696608,-84.49757
145038,145038,DALE LN SW,33.693984,-84.492166
145042,145042,DALE LN SW ,33.694113,-84.495881
145056,145056,CONTINENTAL COLONY PKWY SW ,33.685884,-84.491747
145058,145058,CONTINENTAL COLONY PKY,33.68497,-84.492418
145064,145064,STONE HOGAN RD CONNE,33.676098,-84.497162
145066,145066,STONE HOGAN CONNECTOR SW ,33.67602,-84.49696
145072,145072,N CAMP CREEK PKY SW ,33.672117,-84.500683
145076,145076,HEADLAND DR SW ,33.68955,-84.488115
145082,145082,HEADLAND DR,33.689823,-84.483536
145096,145096,OLD COLONY RD,33.685271,-84.468012
145104,145104,BRYANT DR,33.687004,-84.471672
145106,145106,BRYANT DR ,33.688059,-84.471691
145112,145112,HEADLAND DR ,33.689634,-84.485617
145302,145302,STONE RD,33.673653,-84.502318
145314,145314,GREENBRIAR PKY ,33.690417,-84.488986
145328,145328,DALE LN ,33.694142,-84.497322
146002,146002,N MARTIN ST,33.677624,-84.437914
146012,146012,RANDALL ST ,33.673975,-84.433608
146040,146040,CLEVELAND AVE ,33.679436,-84.433529
146080,146080,WASHINGTON RD ,33.675815,-84.446969
146106,146106,WASHINGTON RD,33.668884,-84.463799
146120,146120,WASHINGTON AVE,33.674484,-84.452179
146192,146192,MONTROSE DR ,33.681885,-84.462206
146215,146215,DELOWE DR,33.686532,-84.45832
146242,146242,NORMAN BERRY DR,33.686026,-84.447115
146246,146246,CONNALLY DR ,33.685675,-84.440862
146270,146270,GRAYWALL ST ,33.685115,-84.464058
146288,146288,DORSEY AVE ,33.677843,-84.459006
146292,146292,LANCASTER DR ,33.678774,-84.465904
146308,146308,EAST POINT ST ,33.681845,-84.441526
146314,146314,WILLINGHAM DR ,33.669965,-84.442421
146322,146322,IRENE KIDD PKWY ,33.679281,-84.436222
146334,146334,W FORREST AVE ,33.683747,-84.443328
146900,146900,EAST POINT STATION,33.67657,-84.44046
147002,147002,JEFFERSON TER,33.684741,-84.427388
147004,147004,JEFFERSON AVE,33.684814,-84.426302
147028,147028,SYLVAN RD,33.6941,-84.41865
147072,147072,SPRINGDALE RD,33.686317,-84.414869
147078,147078,LAKEWOOD AVE ,33.6971,-84.41781
148002,148002,SPRINGDALE RD SW ,33.69628,-84.41417
148006,148006,SPRINGDALE RD SW,33.69122,-84.41441
148034,148034,KING ARNOLD ST,33.657039,-84.403822
148046,148046,DOGWOOD DR,33.661911,-84.409439
148054,148054,SPRINGDALE RD ,33.692881,-84.414049
148092,148092,KING ARNOLD ST ,33.655399,-84.39965
149002,149002,POLAR ROCK RD SW,33.695995,-84.398155
149003,149003,FINCH DR ,33.694886,-84.385575
149010,149010,POLAR ROCK AVE SW,33.695033,-84.395964
149011,149011,SWALLOW CIR ,33.69474,-84.38609
149016,149016,POLAR ROCK AVE,33.692528,-84.396255
149018,149018,POLAR ROCK AVE SW ,33.691147,-84.396317
149022,149022,POLAR ROCK TER SW,33.690788,-84.394653
149026,149026,POLAR ROCK TER,33.694065,-84.394684
149030,149030,CLEVELAND AVE SW ,33.681186,-84.393484
149031,149031,OLD HAPEVILLE RD ,33.68796,-84.39043
149032,149032,OLD HAPEVILLE RD SW,33.684074,-84.392715
149033,149033,MACON DR,33.691208,-84.391047
149038,149038,OLD HAPEVILLE RD,33.685528,-84.391904
149044,149044,POLAR ROCK TER SW ,33.695526,-84.394639
149046,149046,HARPER RD SE ,33.696378,-84.38571
149051,149051,MACON DR SW,33.695721,-84.389805
150010,150010,JONESBORO RD SE ,33.689999,-84.364154
150022,150022,MCWILLIAMS RD SE ,33.688788,-84.36978
150048,150048,BROWNS MILL RD SE ,33.68772,-84.377709
150064,150064,NORTH POINT PKWY ,34.061846,-84.265327
150156,150156,FORREST PARK RD SE ,33.694976,-84.36036
150162,150162,NORTH POINT PKWY,34.062669,-84.265402
150214,150214,NORTH POINT PKY,34.055338,-84.271713
151008,151008,THOMASVILLE DR SE,33.697521,-84.355402
151030,151030,VALLEY VIEW RD SE,33.690843,-84.35578
151034,151034,REDFORD DR,33.687826,-84.356713
151040,151040,CONSTITUTION RD SE ,33.692875,-84.357095
151060,151060,METRO TRANSITIONAL CENTER,33.688895,-84.337031
151090,151090,REGIS RD SE ,33.692455,-84.350708
151092,151092,VALLEY VIEW RD,33.69113,-84.351869
151100,151100,STONEWALL DR SE,33.691595,-84.356725
151130,151130,REBEL FOREST DR SE,33.688134,-84.360042
151132,151132,REDFORD DR SE ,33.688801,-84.35982
151134,151134,REDFORD DR SE,33.688577,-84.358016
151156,151156,CONSTITUTION RD,33.693232,-84.359593
153007,153007,CLIFTON SPRINGS RD ,33.691663,-84.282826
153015,153015,CLIFTON SPRINGS WAY ,33.69928,-84.30101
153028,153028,GSU/PERIMETER COLLEGE - DECATUR CAMPUS,33.689564,-84.272682
153038,153038,RIVER RD,33.674092,-84.265666
153112,153112,RIVER RD ,33.673488,-84.276624
158006,158006,PORSCHE AVE ,33.656792,-84.406309
158034,158034,CALHOUN AVE,33.672203,-84.42394
158044,158044,MARIA HEAD TER,33.669893,-84.423927
158052,158052,JEFFERSON TER ,33.681895,-84.427211
158102,158102,SYLVAN RD ,33.681651,-84.418652
158118,158118,N CENTRAL AVE ,33.662783,-84.415708
158122,158122,TOFFIE TER,33.659083,-84.429624
158124,158124,TOFFIE TER ,33.65885,-84.42957
158126,158126,N OUTER LOOP RD ,33.657652,-84.42757
158128,158128,INNER LOOP RD,33.657438,-84.426419
158136,158136,VIRGINIA AVE ,33.658989,-84.42131
158138,158138,VIRGINIA AVE,33.658822,-84.420112
158234,158234,S CENTRAL AVE ,33.658419,-84.408776
158303,158303,METROPOLITAN PKWY ,33.677004,-84.408742
158412,158412,ATLANTA AVE,33.656463,-84.412079
158414,158414,DOUG DAVIS DR,33.658505,-84.415987
158416,158416,DOUG DAVIS DR ,33.658298,-84.415899
159002,159002,EMPIRE BLVD SW,33.65673,-84.391184
159008,159008,EMPIRE BLVD SW ,33.666538,-84.392387
159016,159016,HAPEVILLE RD SW,33.674873,-84.393288
159044,159044,RUBY H HARPER BLVD SE ,33.663391,-84.380592
159080,159080,CLEVELAND AVE SE ,33.681046,-84.387697
159124,159124,CLEVELAND AVE SE,33.68074,-84.380775
159246,159246,HUTCHENS RD SE,33.671716,-84.371704
159334,159334,ZIP INDUSTRIAL BLVD,33.653275,-84.389267
159336,159336,ZIP INDUSTRIAL BLVD SE,33.654934,-84.389046
159344,159344,HAMILTON BLVD ,33.663052,-84.385826
159390,159390,BROWNS MILL RD,33.667433,-84.380236
159410,159410,HUTCHENS RD,33.667995,-84.363991
164002,164002,CENTRE PKWY ,33.651716,-84.513334
164008,164008,OLD FAIRBURN RD ,33.663447,-84.527261
165002,165002,STONE RD ,33.666025,-84.467467
165014,165014,MT OLIVE RD ,33.665657,-84.477913
165016,165016,MT OLIVE RD,33.664033,-84.477616
165032,165032,N DESERT DR,33.65734,-84.49491
165034,165034,N DESERT DR ,33.6572,-84.49467
165055,165055,DESERT DR ,33.651455,-84.491228
165080,165080,N COMMERCE DR ,33.652458,-84.503119
165084,165084,REDWINE RD ,33.66109,-84.50135
166058,166058,PRINCETON AVE ,33.654656,-84.451779
166060,166060,PRINCETON DR,33.65513,-84.45374
166064,166064,ATLANTA ST,33.657606,-84.455671
166066,166066,ATLANTA ST ,33.659853,-84.455544
166154,166154,PRINCETON AVE,33.654567,-84.451735
166198,166198,W POINT AVE ,33.639587,-84.457077
166205,166205,ROOSEVELT HWY ,33.64353,-84.45374
166900,166900,COLLEGE PARK STATION - SOUTH LOOP,33.651267,-84.448559
166901,166901,COLLEGE PARK STATION - NORTH LOOP,33.651937,-84.448465
167012,167012,CONLEY RD SE,33.650192,-84.359505
167016,167016,CONLEY RD SE ,33.648628,-84.364136
167034,167034,FORREST PARK RD,33.650337,-84.358284
169032,169032,CLEVEMONT RD ,33.652356,-84.253681
171008,171008,NORGATE LN,33.703147,-84.280734
175002,175002,ROOSEVELT HWY,33.621469,-84.50587
176038,176038,ROOSEVELT,33.622491,-84.494702
176058,176058,SULLIVAN RD ,33.624496,-84.473335
176060,176060,SULLIVAN RD,33.624393,-84.466248
176066,176066,BEST RD ,33.625137,-84.458008
176068,176068,BEST RD,33.62841,-84.457863
176088,176088,OLD NATIONAL HWY ,33.622997,-84.474663
176106,176106,GODBY RD ,33.616298,-84.471772
176112,176112,SCOFIELD RD ,33.61232,-84.463531
176230,176230,BUFFINGTON RD ,33.612578,-84.500261
176232,176232,BUFFINGTON RD,33.61275,-84.49993
182025,182025,CAMP DR ,33.60012,-84.54931
182029,182029,STONEWALL TELL RD ,33.598457,-84.548685
183002,183002,ROYAL SOUTH PKY ,33.58784,-84.512909
183006,183006,FELDWOOD RD ,33.5869,-84.51607
183950,183950,SOUTH FULTON PARK & RIDE,33.586794,-84.51233
183970,183970,BANK OF AMERICA PARKING LOT,33.588848,-84.514669
184006,184006,KIMBERLY MILL RD ,33.581967,-84.487225
184008,184008,HARPER VALLEY DR ,33.586384,-84.480797
184010,184010,CARRIAGE LN,33.591802,-84.479624
184027,184027,OLD NATIONAL ,33.597406,-84.469785
184032,184032,OLD NATIONAL HWY,33.593315,-84.468597
184074,184074,OLD FARM RD ,33.589582,-84.482466
190004,190004,W BROAD ST ,33.572773,-84.569469
190010,190010,NW BROAD ST ,33.567785,-84.579539
190021,190021,BEVERLY ENGRAM PKY ,33.569705,-84.562351
190024,190024,S MAIN ST ,34.066208,-84.306178
190052,190052,BEVERLY ENGRAM PKWY ,33.572129,-84.564846
190060,190060,SMITH ST ,33.565904,-84.58257
191003,191003,JONESBORO RD ,33.56817,-84.53743
191091,191091,GA-138 E ,33.572316,-84.565075
193010,193010,CADIZ CIR ,33.573943,-84.490109
210001,210001,S STONE MNT LITHONIA RD ,33.780879,-84.161423
210003,210003,S STONE MTN LITHONIA RD ,33.771734,-84.163074
210004,210004,MOURY AVE,33.716957,-84.393017
210007,210007,MIDWAY RD ,33.759311,-84.251576
210015,210015,S STONE MOUNTAIN LITHONIA RD,33.76768,-84.163658
210026,210026,PANOLA RS,33.7532,-84.165536
210032,210032,PRINCETON LAKES PKY ,33.65711,-84.510328
210033,210033,NORTHSIDE PKWY ,33.864272,-84.449462
210034,210034,NORTHSIDE PKWY,33.864291,-84.449049
210053,210053,POWERS FERRY RD ,33.910905,-84.425071
210054,210054,POWERS FERRY RD NW ,33.911532,-84.424331
210056,210056,S INDIAN CREEK DR,33.761464,-84.223328
210062,210062,S INDIAN CREEK DR ,33.749575,-84.221115
210064,210064,S HAIRSTON RD,33.766019,-84.195052
210077,210077,WELCOME RD,33.612619,-84.524623
210078,210078,WELCOME ALL RD,33.611877,-84.524437
210105,210105,WELCOME ALL RD ,33.630848,-84.529272
210115,210115,FAIRINGTON PKWY,33.699999,-84.163646
210117,210117,FAIRINGTON PKWY ,33.69749,-84.155894
210124,210124,CHUPP RD,33.706433,-84.117696
210130,210130,E SIDE DR ,33.708745,-84.217605
210131,210131,PLEASANTWOOD DR ,33.708321,-84.214411
210140,210140,MURPHY AVE,33.722754,-84.422037
210143,210143,MURPHY AVE ,33.719504,-84.423696
210144,210144,PEACHTREE IND BLVD ,33.891097,-84.31013
210149,210149,TUCKERSTONE PKWY ,33.857978,-84.198611
210155,210155,PEACHTREE CENTER AVE ,33.757062,-84.386018
210163,210163,PEACHTREE INDUSTRIAL BLVD ,33.900117,-84.300053
210165,210165,MOTORS IND WAY ,33.910521,-84.285769
210166,210166,MOTORS INDUSTRIAL WAY ,33.910709,-84.285638
210168,210168,PRINCETON LAKES PKWY ,33.657945,-84.508734
210207,210207,N DECATUR RD ,33.788193,-84.248841
210208,210208,DONALD L HOLLOWELL PKWY ,33.772341,-84.425285
210300,210300,BOLTON RD,33.81061,-84.4775
210302,210302,PEYTON RD,33.80806,-84.476603
210303,210303,PEYTONRD,33.808058,-84.478126
210320,210320,CHUPP RD ,33.705663,-84.122175
210338,210338,DURHAM PARK RD,33.771608,-84.226109
210346,210346,GRTA - PANOLA PARK & RIDE,33.702106,-84.172974
210353,210353,CEDAR ST,33.78529,-84.258512
210358,210358,I-85 ACCESS RD SOUTH (N.E. EXPY) ,33.851628,-84.301451
210360,210360,NORTHSIDE DR NW ,33.800021,-84.407764
210379,210379,NORTHSIDE DR,33.793899,-84.407801
210382,210382,NORTHLAKE PKWY ,33.843243,-84.244042
210389,210389,CAMP CREEK PKWY ,33.650488,-84.471564
210390,210390,CAMP CREEK PKWY,33.650041,-84.470934
210431,210431,GA STATE STATION - JESSE HILL JR DR,33.749764,-84.385434
210447,210447,HAMMOND DR,33.91898,-84.36752
210502,210502,AMAL DR ,33.707018,-84.397637
210551,210551,IVAN ALLEN JR BLVD NW ,33.764727,-84.395984
210555,210555,PIEDMONT AVE  SE ,33.752543,-84.384156
210561,210561,COVINGTON DR ,33.761378,-84.251835
210562,210562,PEACHTREE RD,33.845026,-84.368814
210565,210565,BUFORD HWY ,33.911576,-84.264265
210566,210566,BUFORD HWY,33.909081,-84.266783
210571,210571,CHAPEL ST SW ,33.742699,-84.40991
210581,210581,MARIA HEAD TER ,33.669981,-84.426077
210591,210591,POLAR ROCK RD,33.695301,-84.395975
210602,210602,BROWNS MILL RD ,33.673224,-84.38314
210606,210606,RUBY H HARPER BLVD SE,33.654175,-84.380661
210616,210616,UNIVERSITY AVE,33.722173,-84.39751
210618,210618,UNIVERSITY AVE ,33.722179,-84.401313
210648,210648,AMAL DR,33.707554,-84.399322
210651,210651,BOND DR,33.705297,-84.401362
210652,210652,ASHWOOD AVE,33.705137,-84.398928
210664,210664,BROOKS DR,33.561238,-84.586806
210678,210678,17TH ST NW ,33.791754,-84.387818
210679,210679,17TH ST NE ,33.7924,-84.386383
210709,210709,GA STATE STATION - PIEDMONT AVE,33.749937,-84.386893
210710,210710,JACKSON ST NE ,33.755895,-84.374276
210743,210743,MCGINNIS FERRY RD ,34.104192,-84.248717
210744,210744,MCGINNIS FERRY RD,34.104237,-84.248608
210745,210745,WINDWARD CONCOURSE,34.101091,-84.241055
210746,210746,WINDWARD CONCOURSE ,34.098711,-84.241112
210748,210748,WINDWARD PLAZA,34.093047,-84.23984
210749,210749,WINDWARD PLZ ,34.092993,-84.239993
210750,210750,WINDWARD PKWY,34.089878,-84.25014
210757,210757,MORRIS RD ,34.090791,-84.26739
210758,210758,MORRIS RD,34.094466,-84.261808
210760,210760,RALPH MCGILL BLVD ,33.76434,-84.384154
210762,210762,COURTLAND ST ,33.756087,-84.384289
210763,210763,FAIRBURN RD NW ,33.779455,-84.507367
210777,210777,SWALLOW CIR SE ,33.69647,-84.387253
210793,210793,W MOUNTAIN ST ,33.806659,-84.176687
210797,210797,HAMILTON BLVD,33.662204,-84.383794
210799,210799,SOUTHSIDE INDUSTRIAL PKWY,33.652302,-84.384808
210802,210802,ROSWELL RD,33.894978,-84.381269
210814,210814,MARTIN L KING JR DR SW ,33.75257,-84.486507
210815,210815,WENDELL DR ,33.769666,-84.53194
210826,210826,DEERFIELD PKWY ,34.096989,-84.264808
210837,210837,MARIETTA ST ,33.76333,-84.397102
210843,210843,BENJAMIN E MAYS HIGH SCHOOL,33.733942,-84.505152
210846,210846,PARKLAKE DR ,33.846496,-84.24984
210847,210847,HENDERSON MILL RD ,33.850779,-84.258456
210848,210848,PLEASANT HILL RD ,33.600214,-84.468194
210860,210860,PIERCE DR NE ,33.893898,-84.305642
210861,210861,PIERCE DR ,33.893764,-84.305773
210863,210863,PERIMETER CTR PL,33.927368,-84.341371
210876,210876,14TH ST ,33.786177,-84.40429
210886,210886,VALLEY VIEW RD SE ,33.691381,-84.35314
210891,210891,HARPER RD ,33.696921,-84.380409
210904,210904,N PEACHTREE RD ,33.907946,-84.296412
210923,210923,HOLLY RD ,33.761338,-84.437643
210936,210936,DEFOORS FERRY RD ,33.820679,-84.447826
210962,210962,E PONCE DE LEON AVE ,33.785867,-84.265733
210967,210967,ALEXANDER DR ,34.059364,-84.244941
210972,210972,MARIETTA BLVD NW ,33.791205,-84.429714
210973,210973,MARIETTA BLVD ,33.794828,-84.431938
210987,210987,BULL RUN DR ,33.702693,-84.287677
210990,210990,HOLCOMB BRIDGE RD,34.022089,-84.326413
210997,210997,WASHINGTON ST ,33.565452,-84.584358
211005,211005,SPRING ST ,33.748856,-84.397991
211007,211007,WINDWARD PLZ,34.093637,-84.239359
211009,211009,CENTRAL AVE ,33.90096,-84.277496
211021,211021,POLLARD BLVD SW,33.734449,-84.390805
211023,211023,ATLANTA IND PKWY,33.792031,-84.495453
211029,211029,HAYNES BRIDGE RD ,34.052307,-84.285621
211032,211032,OTTLEY DR ,33.808758,-84.381138
211034,211034,ARMOUR DR ,33.810861,-84.381187
211038,211038,WEBB RD,34.097471,-84.259927
211039,211039,BROWNTOWN RD NW,33.803814,-84.472548
211081,211081,SURREY TRL ,33.602169,-84.465875
211083,211083,CHAMBLEE TUCKER RD,33.864505,-84.218164
211085,211085,CHAMBLEE TUCKER RD ,33.856781,-84.217946
211086,211086,LAVISTA RD,33.85549,-84.215346
211090,211090,BUFORD HWY NE ,33.870708,-84.297809
211111,211111,INTERSTATE NORTH PKWY ,33.907809,-84.433715
211116,211116,POLLARD BLVDSW,33.73299,-84.390901
211124,211124,BILL KENNEDY WAY SE ,33.741919,-84.358202
211132,211132,LAWRENCEVILLE HWY ,33.826004,-84.256225
211140,211140,MONTREAL RD ,33.828431,-84.258519
211141,211141,CAMERON M ALEXANDER BLVD NW ,33.768237,-84.40872
211145,211145,HOWELL MILL RD NW,33.832503,-84.417973
211149,211149,PERIMETER CTR PL NE,33.93136,-84.339149
211161,211161,RUPERT RD,33.748322,-84.274784
211169,211169,UNIVERSITY AVE SW,33.721049,-84.389837
211171,211171,FULTIN IND BLVD SW,33.7686,-84.522151
211173,211173,WINTERS CHAPEL RD ,33.93736,-84.267885
211181,211181,BROOKSIDE PKWY ,34.060609,-84.246686
211182,211182,HOGAN RD SW,33.675302,-84.504148
211190,211190,MOUNTAIN IND BLVD ,33.833559,-84.195419
211191,211191,LAVISTA RD ,33.831411,-84.275318
211192,211192,CAMERON M ALEXANDER BLVD ,33.768195,-84.404914
211193,211193,FORREST PARK RD ,33.695711,-84.360029
211209,211209,REDWINE RD SW ,33.659967,-84.504135
211213,211213,BRIARWOOD RD NE,33.844274,-84.32629
211221,211221,PRINCETON LAKES PKWY SW ,33.659915,-84.508663
211223,211223,PARKLAKE DR NE ,33.850451,-84.249205
211225,211225,HUTCHENS RD SE ,33.666018,-84.359809
211228,211228,LLOYD RD ,33.711545,-84.285282
211240,211240,MARKET PLACE BLVD ,33.656981,-84.501566
211241,211241,SHELBY LN ,33.656289,-84.503225
211300,211300,INDIAN CREEK STATION - OUTSIDE BUS LOOP,33.769268,-84.229764
211306,211306,WELCOME ALL RD SW ,33.647121,-84.520488
211312,211312,PLANTATION DR,33.679932,-84.463778
211322,211322,OGLETHROPE AVE SW ,33.73591,-84.414967
211328,211328,OLD HAPEVILL RD,33.680653,-84.39344
211331,211331,MT VERNON RD,33.947898,-84.326336
211333,211333,N INDIAN CREEK DR ,33.785678,-84.236717
211336,211336,SW BROAD ST ,33.560818,-84.586588
211355,211355,MACON DR ,33.697829,-84.38985
211364,211364,NORTH AVE ,33.768504,-84.449386
211366,211366,NORTH AVE,33.768528,-84.452615
211374,211374,JOSEPH E BOONE BLVD ,33.763536,-84.441093
211378,211378,JOSEPH E BOONE BLVD NW ,33.763512,-84.437984
211400,211400,E CONFEDERATE AVE SE,33.726899,-84.359619
211402,211402,CONFEDERTAE AVE SE,33.727784,-84.363749
211406,211406,HARPER RD SE,33.69688,-84.371208
211411,211411,ISA DR SE ,33.700602,-84.349678
211413,211413,GRESHAM RD SE,33.706762,-84.308198
211415,211415,GRESHAM RD ,33.705733,-84.30885
211419,211419,GREEN FORREST DR,33.722821,-84.258848
211428,211428,ASHFORD DUNWOODY RD,33.920737,-84.339278
211440,211440,NORMAN BERRY DR ,33.669173,-84.428041
211448,211448,CORNELL BLVD,33.75885,-84.518158
211449,211449,10TH ST NE ,33.781728,-84.3729
211450,211450,WILSON MILL RD,33.755858,-84.514345
211459,211459,TURNER HILL RD ,33.694517,-84.088626
211463,211463,N DRUID HILLS RD ,33.827081,-84.327498
211476,211476,FLOWERS RD S ,33.871906,-84.268074
211482,211482,GOLDSMITH PARK & RIDE,33.811196,-84.182803
211485,211485,HORSE SHOE DR SE ,33.698912,-84.309982
211487,211487,CORRAL SR SE,33.697855,-84.306647
211488,211488,CORRAL DR SE,33.698848,-84.306103
211492,211492,N DRUID HILLS RD NE ,33.827591,-84.329827
211493,211493,EXECUTIVE PARK S ,33.82733,-84.34258
211494,211494,CHANTILLY DR NE ,33.82647,-84.345147
211498,211498,PERRY BLVD NW ,33.794489,-84.449047
211500,211500,AJAX DR NW ,33.79938,-84.460813
211501,211501,NORTH AVE NW,33.76853,-84.45056
211504,211504,ENGLISH AVE NW ,33.771393,-84.413507
211509,211509,DELMAR LN ,33.756409,-84.49794
211517,211517,FLOWERS RD S,33.875459,-84.269879
211518,211518,FLOWERS RDS,33.875763,-84.269356
211524,211524,PONCE DE LEON AVE ,33.77384,-84.352985
211533,211533,CLIFTON CHURCH RD,33.69917,-84.301247
211542,211542,SAN GABRIEL AVE,33.744694,-84.268808
211547,211547,LINE ST,33.747,-84.28022
211549,211549,WENDELL DR SW,33.766713,-84.520928
211550,211550,WENDELL DR SW ,33.766615,-84.520928
211551,211551,WINDWARD PKWY ,34.088853,-84.273593
211555,211555,CLAIRMONT RD NE ,33.845553,-84.315189
211561,211561,HOLLYWOOD RD NW ,33.783575,-84.459589
211573,211573,LUCKIE ST NW ,33.768881,-84.396031
211581,211581,ROOSEVELT HW ,33.547937,-84.606893
211582,211582,LINECREST RD ,33.650269,-84.248725
211584,211584,ORMOND ST ,33.731746,-84.389476
211601,211601,JOHNSON FERRY RD NE ,33.893362,-84.331203
211603,211603,JOHNSON FERRY RD ,33.904055,-84.348893
211613,211613,BOLTON RD NW ,33.787745,-84.494617
211627,211627,PRYOR ST SE ,33.753346,-84.389407
211647,211647,AUBURN POINTE DR ,33.751284,-84.377654
211663,211663,CLIFTON ST SE ,33.746328,-84.331811
211666,211666,2ND AVE NE ,33.751331,-84.309678
211667,211667,HARLAN RD SW ,33.744373,-84.478936
211672,211672,N ROYAL ATLANTA DR ,33.859652,-84.198891
211673,211673,JW WILLIAMS SR LN ,33.705321,-84.167155
211683,211683,LAVISTA RD NE ,33.816716,-84.31628
211687,211687,DUNWOODY PL ,33.989445,-84.342049
211688,211688,OLD MILTON PKY ,34.071208,-84.295883
211691,211691,HOWELL MILL RD NW ,33.816555,-84.415637
211693,211693,STEPHENS ST SW ,33.734565,-84.405195
211694,211694,HUMPHRIES ST SW ,33.734565,-84.405282
211695,211695,HUMPHRIES ST ,33.736436,-84.404675
211697,211697,WALMART DR ,33.700544,-84.169239
211713,211713,EAST DEKALB HEALTH CENTER,33.73935,-84.123924
211714,211714,GEORGIA AVE ,33.736903,-84.387763
211723,211723,CLIFTON SPRINGS HEALTH CENTER,33.692696,-84.262943
211726,211726,DEPARTMENT OF REVENUE,33.643159,-84.52329
211727,211727,WINN WAY ,33.791718,-84.280945
211749,211749,KING HISTORIC DISTRICT,33.755506,-84.374961
211750,211750,DOBBS PLAZA,33.755565,-84.378785
211752,211752,WOODRUFF PARK,33.756022,-84.3882
211753,211753,PEACHTREE CENTER STATION,33.758064,-84.387532
211754,211754,CARNEGIE WAY ,33.759567,-84.389572
211755,211755,CENTENNIAL OLYMPIC PARK,33.759425,-84.391975
211756,211756,LUCKIE ST ,33.758058,-84.390306
211757,211757,PARK PLACE,33.755036,-84.388211
211758,211758,HURT PARK,33.754483,-84.385283
211759,211759,SWEET AUBURN MARKET,33.754407,-84.379845
211882,211882,DEKALB INDUSTRIAL WAY ,33.785147,-84.276283
211884,211884,PENELOPE ST NW ,33.753362,-84.455222
211887,211887,E WESLEY CHAPEL WAY ,33.711831,-84.215015
211905,211905,ALPHARETTA ST ,34.034954,-84.345114
211918,211918,MEADOWLANE DR SW ,33.694111,-84.497489
211919,211919,ABNER TER NW ,33.801285,-84.461893
211920,211920,KIPLING ST ,33.703662,-84.355448
211926,211926,HAMMOND DR ,33.918973,-84.348156
211929,211929,MARKET WAY ,34.020433,-84.321221
211935,211935,BOULDERVIEW DR ,33.7055,-84.311154
211936,211936,ROLLINGWOOD LN ,33.704104,-84.316162
211938,211938,BROWNLEE RD SW ,33.738145,-84.496032
211944,211944,ACADEMY ST ,34.075493,-84.294222
211955,211955,14TH ST NE ,33.786415,-84.379461
211958,211958,ORMOND ST SW ,33.731844,-84.390618
211960,211960,NORTHWEST DR ,33.801118,-84.487336
211978,211978,NEW PEACHTREE RD ,33.908815,-84.271707
211981,211981,PERIMETER CTR W ,33.926769,-84.33893
211985,211985,ROCKBRIDGE RD ,33.787126,-84.196355
211986,211986,RIVEREDGE PKY NW ,33.909389,-84.438815
211992,211992,JAMES JACKSON PKWY NW ,33.787698,-84.476704
211993,211993,EXECUTIVE PARK SOUTH NE ,33.828404,-84.340469
211995,211995,DAWSON BLVD NW ,33.903095,-84.239558
212002,212002,NORTH AVE NW ,33.77117,-84.39898
212004,212004,NORTHSIDE PKWY NW ,33.863821,-84.445009
212008,212008,S ATLANTA ST ,34.013949,-84.362997
212010,212010,JEFFERSON AVE ,33.685947,-84.420123
212013,212013,R N MARTIN ST ,33.679378,-84.437949
212026,212026,SKIPPER DR NW ,33.781456,-84.492157
212029,212029,PONCE DE LEON AVE NE ,33.772361,-84.383497
212030,212030,ALINE DR ,33.771946,-84.489092
212032,212032,N SHALLOWFORD RD ,33.917658,-84.303795
212036,212036,WINDWARD PKY ,34.088754,-84.256364
212040,212040,MERCER UNIVERSITY DR ,33.875298,-84.25346
212048,212048,DRYDEN RD ,34.086921,-84.257228
212050,212050,OLD MILTON PKWY ,34.070401,-84.290502
212057,212057,S ATLANTA HIGH SCHOOL,33.67006,-84.362056
212079,212079,FOREST PKY ,33.615028,-84.350346
212092,212092,RIVERDALE RD ,33.613802,-84.438093
212104,212104,GARDEN WALK BLVD ,33.596971,-84.427925
212116,212116,SR 85 ,33.590317,-84.409105
212128,212128,CHURCH ST ,33.560604,-84.416968
212137,212137,LAMAR HUTCHESON PKY ,33.560976,-84.410982
212139,212139,XPRESS - RIVERDALE PARK & RIDE,33.56835,-84.403322
212145,212145,UPPER RIVERDALE RD SW ,33.574181,-84.399195
212149,212149,UPPER RIVERDALE RD ,33.579114,-84.384394
212160,212160,TARA BLVD ,33.578796,-84.374219
212161,212161,MT ZION RD ,33.572952,-84.37043
212167,212167,MERCHANTS WAY ,33.573173,-84.34889
212168,212168,SOUTHLAKE MALL,33.573786,-84.350014
212193,212193,ANVIL BLOCK RD ,33.633875,-84.289575
212218,212218,LOU WALKER SENIOR CENTER,33.714072,-84.164453
212230,212230,BAKERS FERRY RD SW ,33.760298,-84.508453
212233,212233,FOREST PKWY ,33.620039,-84.381744
212235,212235,SOUTHAMPTON RD ,33.616208,-84.457132
212236,212236,CLAYTON COUNTY JUSTICE CENTER,33.506028,-84.360042
212237,212237,VALLEY HILL RD SW ,33.570337,-84.404116
212339,212339,PHOENIX BLVD ,33.6139,-84.447893
212381,212381,POINTE SOUTH PKY ,33.521767,-84.423317
212386,212386,FLINT RIVER RD SW ,33.518269,-84.407879
212392,212392,FLINT RIVER RD ,33.518023,-84.387144
212420,212420,SR 138 ,33.548923,-84.413354
212427,212427,SR 138 SE ,33.535185,-84.372078
212439,212439,AIRPORT INTERNATIONAL TERMINAL - ARRIVALS,33.640531,-84.417144
212457,212457,LOVEJOY RD ,33.441836,-84.340934
212458,212458,PANHANDLE RD ,33.445257,-84.342852
212460,212460,MCDONOUGH RD ,33.448938,-84.339496
212469,212469,BATTLE CREEK RD ,33.553206,-84.351182
212492,212492,CHARLES W GRANT PKWY ,33.640159,-84.391301
212493,212493,CHARLES W GRANT PKY ,33.640079,-84.390866
212497,212497,OLD DIXIE HWY ,33.640186,-84.390584
212503,212503,OLD DIXIIE HWY ,33.64724,-84.391318
212537,212537,CHURCH ST HOWARD ST,33.575415,-84.414566
212540,212540,OLD DIXIE RD ,33.621131,-84.383258
212564,212564,TALMADGE RD ,33.433464,-84.317016
212569,212569,HASTINGS BRIDGE RD ,33.43753,-84.314774
212604,212604,MT VERNON HWY NE ,33.924073,-84.379132
212606,212606,MT VERNON HWY NW ,33.919225,-84.391527
212626,212626,CLAYTON COUNTY LIBRARY SYSTEM HQ,33.554367,-84.363718
212628,212628,STONE RD SW ,33.67255,-84.500602
212676,212676,SR 42 ,33.644216,-84.325353
212677,212677,CONLEY RD ,33.642028,-84.351603
212697,212697,REX RD ,33.591553,-84.296897
212716,212716,MT ZION BLVD ,33.570783,-84.310247
212726,212726,CROWN RD SE ,33.65176,-84.393949
212751,212751,MT ZION PKWY ,33.562199,-84.320733
212754,212754,RICHARDSON PKWY ,33.568089,-84.314898
212774,212774,BOULDERCREST ,33.663964,-84.306497
212803,212803,HENRY THOMAS DR SE ,33.703698,-84.355752
212806,212806,STONEWALL DR SE ,33.691595,-84.356812
212829,212829,HARLAND RD SW ,33.751878,-84.482234
212830,212830,OLD DIXE HWY ,33.644681,-84.390414
212842,212842,POSTON RD ,33.504775,-84.353615
212846,212846,TARRAGON WAY SW ,33.74994,-84.520647
212848,212848,FAIRLANE DR NW ,33.766803,-84.504303
212850,212850,BAILEY ST SE ,33.687909,-84.347143
212852,212852,MAYNARD H JACKSON JR BLVD ,33.640974,-84.405023
212873,212873,TALLEY ST ,33.769594,-84.286079
212874,212874,SAMS ST ,33.771043,-84.282436
212876,212876,WEST PARK PL ,33.735991,-84.565001
212877,212877,N AVONDALE RD ,33.776299,-84.267154
212882,212882,SR 9 ,34.098568,-84.27126
212890,212890,CLAIRMONT RD ,33.803979,-84.310636
212894,212894,S WESTPARK DR ,33.734733,-84.562595
212902,212902,PARK AVE ,33.900584,-84.278378
212904,212904,COMMERCE DR ,33.777858,-84.295199
212913,212913,NATHAN RD ,33.75236,-84.501737
212915,212915,PEYTON PL ,33.75399,-84.476291
212934,212934,WESTVIEW PL SW ,33.748872,-84.434614
212935,212935,MIMS ST SW ,33.749667,-84.436366
212937,212937,TATNALL ST ,33.754507,-84.407248
212946,212946,DECATUR STATION - SWANTON WAY,33.77452,-84.298103
212953,212953,CARRIAGE LN ,33.59179,-84.481468
212954,212954,BRANNEN RD ,33.715473,-84.32342
212955,212955,CLARK HOWELL HWY ,33.626217,-84.409284
212962,212962,FLAGSTONE DR SE ,33.710343,-84.315434
212966,212966,CLIFTON CHURCH RD SE ,33.699787,-84.300888
212977,212977,E TRINITY PL ,33.772801,-84.295146
212990,212990,CARVER DR ,33.760046,-84.464996
212991,212991,VERBENA CIR ,33.758209,-84.466406
212993,212993,SEWANEE AVE ,33.757781,-84.465003
212994,212994,W HOWARD AVE ,33.766789,-84.306717
212998,212998,E LAKE RD ,33.766512,-84.312187
213007,213007,WILSON MILL RD SW ,33.744906,-84.517123
213008,213008,CORNELL BLVD SW ,33.75905,-84.516517
213010,213010,LYNHURST DR SW ,33.721866,-84.487933
213012,213012,HARBIN RD ,33.719043,-84.483819
213015,213015,N MAIN ST ,33.5287,-84.354513
213019,213019,LEE ST ,33.524222,-84.357091
213033,213033,HOLLYWOOD RD ,33.80727,-84.471499
213041,213041,WEBB RD ,34.097938,-84.263279
213044,213044,JACKSON ST ,33.75457,-84.374438
213048,213048,ESTES DR ,33.571791,-84.572253
213049,213049,N DRUID HILL RD ,33.819374,-84.313495
213054,213054,N HIGHLAND AVE NE ,33.773411,-84.352594
213067,213067,BROWNLEE RD NW ,33.756499,-84.49967
213073,213073,SPRING GROVE AVE ,33.803269,-84.415336
213084,213084,W WHITEHALL ST SW ,33.740244,-84.412342
213091,213091,BEECHER ST ,33.733651,-84.44757
213103,213103,CENTER ST ,33.518805,-84.66931
213106,213106,MT VERNON HWY ,33.916465,-84.397287
213108,213108,BRIARCLIFF RD ,33.848119,-84.255596
213110,213110,ARTS CENTER WAY ,33.789213,-84.386402
213115,213115,CALHOUN AVE ,33.672625,-84.425381
213118,213118,S PARK BLVD ,33.623334,-84.291209
213119,213119,FALCON DR ,33.624685,-84.397832
213124,213124,ALPHARETTA PKWY ,34.105573,-84.269596
213132,213132,LAKE MIRROR RD ,33.628266,-84.41187
213133,213133,DOLLAR MILL RD ,33.745962,-84.527964
213134,213134,FLINTSTONE DR ,33.849006,-84.194479
213135,213135,MOUNTAIN INDUSTRIAL BLVD ,33.857424,-84.191025
213136,213136,S ROYAL ATLANTA DR ,33.856319,-84.187685
213143,213143,GRANITE DR ,33.845357,-84.197075
213154,213154,BOBBY BROWN PKWY ,33.662476,-84.429585
213157,213157,PERRY J HUDSON PKWY ,33.657678,-84.418645
213158,213158,BRAVES DR ,33.625152,-84.395933
213159,213159,N INNER LOOP RD ,33.65277,-84.409074
213171,213171,SOUTHLAKE PKWY ,33.552949,-84.340013
213177,213177,GREER CIR ,33.832033,-84.198925
213181,213181,SARR PKWY ,33.834307,-84.20828
213186,213186,IDLEWOOD RD ,33.835896,-84.213306
213195,213195,HUGH HOWELL RD ,33.851859,-84.208886
213199,213199,HARPER DR ,33.599497,-84.337646
213203,213203,CONVENTION CENTER CONCOURSE ,33.648387,-84.462017
213208,213208,N LAKE DR ,33.596516,-84.333892
213240,213240,PEACHTREE BATTLE AVE ,33.824318,-84.412109
213243,213243,E LOVEJOY RD ,33.452269,-84.310917
213254,213254,TARA  BLVD ,33.444425,-84.323068
213258,213258,PIEDMONT AVE ,33.795925,-84.370037
213265,213265,ELDER RD ,33.763751,-84.228663
213274,213274,E WASHINGTON AVE ,33.675619,-84.437498
213282,213282,HOLCOMB BRIDGE RD ,34.019914,-84.31689
213285,213285,SPALDING DR ,33.967612,-84.260308
213291,213291,AUSTIN DR ,33.743195,-84.23408
213293,213293,BUTTON GWINNETT DR ,33.904151,-84.240254
213299,213299,HOLCOMB BRIGE RD ,34.005084,-84.297522
213305,213305,RIVER EXCHANGE DR ,33.967954,-84.263654
213329,213329,TURNER RD SE ,33.703313,-84.354937
213335,213335,HARGIS ST SE ,33.687377,-84.360308
213341,213341,STONECREST PKWY ,33.697091,-84.087043
213344,213344,MELDON AVE ,33.712123,-84.393339
213346,213346,TROUP ST ,33.711552,-84.390144
213347,213347,MOURY AVE ,33.712904,-84.389776
213349,213349,RALPH DAVID ABERNATHY BLVD ,33.736925,-84.396785
213355,213355,CENTRA VILLA DR ,33.713297,-84.454068
213364,213364,BOULDERCREST DR ,33.725704,-84.332733
213369,213369,CHAPPELL RD ,33.763356,-84.433004
213373,213373,SHANNON PKWY ,33.570792,-84.539435
213375,213375,MALDO DR NW ,33.800096,-84.482265
213381,213381,DERRICK INDUSTRIAL PKWY ,33.626026,-84.578584
213386,213386,14TH ST NW ,33.78585,-84.411349
213388,213388,JOSEPH E LOWERY BLVD NW ,33.782343,-84.417253
213389,213389,W MARIETTA ST NW ,33.783371,-84.417833
213396,213396,FOX ST ,33.772213,-84.417281
213399,213399,HARWELL RD ,33.785279,-84.491534
213408,213408,W MARIETTA ST ,33.78004,-84.414517
213409,213409,PERRY BLVD ,33.804931,-84.467274
213411,213411,PEYTON RD ,33.807982,-84.474949
213415,213415,MOREHOUSE DR ,33.761167,-84.455289
213422,213422,CLOVIS CT ,33.775157,-84.508444
213423,213423,BROWNTOWN RD ,33.803631,-84.482349
213428,213428,ARGYLE DR ,33.799293,-84.480099
213429,213429,BRIDGEPORT DR ,33.798768,-84.477705
213430,213430,MARCO DR ,33.800447,-84.476478
213431,213431,COLLIER DR ,33.762983,-84.484572
213457,213457,W PEACHTREE ST ,33.784191,-84.387736
213463,213463,EZRA CHURCH DR ,33.756606,-84.43394
213465,213465,ATLANTA S PKWY ,33.617065,-84.413236
213491,213491,OAKLEY RD ,33.584423,-84.531758
213498,213498,MALL BLVD ,33.574538,-84.531726
213512,213512,STONECREST SQ ,33.700677,-84.100918
213513,213513,S FULTON PKWY ,33.619573,-84.545771
213519,213519,BOLTON RD ,33.772186,-84.507687
213523,213523,UPS DISTRIBUTION CENTER,33.788347,-84.504233
213525,213525,ANVILBLOCK RD ,33.630735,-84.283684
213526,213526,BOAT ROCK BLVD ,33.726029,-84.585031
213536,213536,CLAYTON DR NE ,33.80698,-84.385611
213539,213539,CUSTER AVE ,33.715801,-84.352932
213559,213559,PARKWAY DR ,33.761463,-84.374301
213562,213562,GLEN IRIS DR ,33.765986,-84.367715
213568,213568,PIEDMONT CIR ,33.811365,-84.366793
213569,213569,PIEDMONT RD ,33.805243,-84.367454
213570,213570,MICHAEL ST ,33.795873,-84.324616
213571,213571,SHALLOWFORD RD ,33.898098,-84.28363
213576,213576,RANCHWOOD DR ,33.845423,-84.251125
213578,213578,EXECUTIVE PARK DR ,33.830079,-84.33431
213581,213581,CHESHIRE BRIDGE RD ,33.818647,-84.3515
213585,213585,HIGHTOWER RD ,33.781552,-84.474431
213586,213586,JAMES JACKSON PKWY ,33.780466,-84.476506
213589,213589,HILL ST ,33.747658,-84.379532
213603,213603,MILLER RD ,33.704097,-84.182715
213610,213610,W LAKE AVE ,33.763116,-84.44106
213612,213612,PEACHTREE RD ,33.882623,-84.318004
213620,213620,RIVERDALE PARK AND RIDE (ON STREET),33.568244,-84.403549
555300,555300,SIX FLAGS PKWY ,33.771922,-84.552397
770627,770627,WOODLAND HILLS DR ,33.812069,-84.344556
771680,771680,MIDWAY RD,33.757884,-84.284569
779803,779803,NO PASSENGERS - NORTHEAST EXPY ,33.839825,-84.313034
779811,779811,BANK OF AMERICA LOT,33.588821,-84.514799
900002,900002,ROCKBRIDGE RD,33.786681,-84.198596
900003,900003,LINDBERGH DR NE ,33.821443,-84.367071
900004,900004,CHESHIRE BRIDGE RD,33.815021,-84.353043
900026,900026,CONSTITUTION RD ,33.692973,-84.357779
900028,900028,S COLUMBIA DR,33.761732,-84.277809
900043,900043,LINDBERGH WAY NE ,33.820585,-84.36521
900061,900061,COBB PKWY SE,33.87793,-84.456877
900062,900062,EAST LAKE BLVD ,33.743598,-84.31481
900069,900069,LANCASTER LN ,33.570023,-84.538593
900079,900079,CUMBERLAND TRANSFER CENTER,33.878148,-84.46904
900080,900080,HOWELL MILL RD ,33.840881,-84.427473
900081,900081,HOWELL MILL RD,33.837361,-84.420362
900096,900096,BRIARWOOD RD,33.84286,-84.322807
900117,900117,CARRIAGE LANE ,33.591906,-84.481729
900119,900119,COBB PKWY ,33.871639,-84.456377
900121,900121,AKERS MILL,33.879094,-84.464567
900122,900122,AKERS MILL RD ,33.879425,-84.464382
900131,900131,MALL PKWY,33.693654,-84.095972
900134,900134,EAST LAKE BLVD SE ,33.741208,-84.314484
900150,900150,CASCADE AVE,33.737154,-84.435783
900169,900169,BEECHER ST SW,33.733668,-84.448081
900175,900175,CASCADE AVE ,33.73874,-84.4336
900182,900182,ANDERSON AVE ,33.75232,-84.445906
900189,900189,RALPH D ABERNATH BLVD ,33.747078,-84.441345
900199,900199,AARON ST,33.753724,-84.451602
900201,900201,WESTWOOD AVE,33.738503,-84.437752
900204,900204,S GORDON ST SW ,33.737172,-84.446688
900213,900213,WELLINGTON ST ,33.752451,-84.43835
900214,900214,LAUREL AVE SW,33.751847,-84.440119
900216,900216,MIMS ST SW,33.749829,-84.439784
900231,900231,WEST LAKE STATION - WEST LOOP,33.752833,-84.445389
900232,900232,WEST LAKE STATION - EAST LOOP,33.75263,-84.444719
900236,900236,PENELOPE RD,33.753805,-84.45083
900237,900237,HAMILTON E HOLMES DR,33.768239,-84.47086
900252,900252,HENDERSON MILL RD,33.867443,-84.250397
900277,900277,FIELDING DR NE ,33.850797,-84.258631
900278,900278,BRIARCLIFF RD NE ,33.849732,-84.258653
900284,900284,BRIARCLIFF RD,33.854822,-84.271091
900293,900293,NORTHLAKE PKY ,33.848369,-84.244734
900309,900309,FLOWERS RD,33.871313,-84.25869
900323,900323,LAWRENCEVILLE HWY,33.844594,-84.231252
900355,900355,BOLTON RD NW,33.821359,-84.456238
900359,900359,LAWRENCEVILLE ,33.850731,-84.214897
900399,900399,NORTHEAST EXPY ,33.853158,-84.298337
900411,900411,I-85 ACCESS ,33.841677,-84.309497
900417,900417,NORTH DEKALB HEALTH CENTER,33.87158,-84.308344
900422,900422,CLAIRMONT RD,33.863479,-84.309514
900425,900425,NORTHEAST EXPY,33.848785,-84.30304
900432,900432,I-85 ACCESS RD NORTH (N.E. EXPY) ,33.872286,-84.277862
900437,900437,SHALLOWFORD RD NE ,33.861156,-84.286382
900448,900448,HENDERSON MILL RD NE,33.853652,-84.259259
900452,900452,PEACHTREE RD NW ,33.815001,-84.391896
900454,900454,PEACHTREE RD NW,33.814449,-84.391815
900457,900457,PEACHTREE RD NE ,33.819576,-84.388374
900477,900477,PIEDMONT RD NE ,33.82701,-84.367019
900490,900490,PEACHTREE RD NE,33.84259,-84.372604
900500,900500,HENDERSON MILL RD NE ,33.846222,-84.255467
900540,900540,SIDNEY MARCUS BLVD,33.82592,-84.364005
900541,900541,SIDNEY MARCUS BLVD ,33.825589,-84.362089
900570,900570,LENOX RD NE ,33.831796,-84.356458
900584,900584,WOODLAND AVE ,33.814777,-84.35228
900585,900585,CHESHIRE BRIDGE RD NE ,33.814941,-84.353
900601,900601,SIDNEY MARCUS BLVD NE ,33.82574,-84.366322
900605,900605,BUFORD HWY NE,33.825744,-84.352688
900609,900609,WOODLAND AVE NE,33.814529,-84.351922
900624,900624,DEFOORS FERRY RD,33.820571,-84.447804
900686,900686,KENSINGTON STATION,33.772472,-84.252236
900687,900687,KENSINGTON RD,33.77121,-84.243584
900688,900688,KENSINGTON RD ,33.769378,-84.235485
900696,900696,FULTON INDUSTRIAL BLVD ,33.741692,-84.563446
900719,900719,COVINGTON RD ,33.774269,-84.25914
900725,900725,PEACHTREE ST NW,33.762833,-84.38723
900731,900731,WESTPARK DR SW ,33.731422,-84.566617
900754,900754,PLAINVILLE CIR ,33.740104,-84.519557
900755,900755,PLAINVILLE CIR,33.739003,-84.519696
900759,900759,PLAINVILLE DR,33.741302,-84.520267
900760,900760,PLAINVILLE DR SW,33.741363,-84.520244
900777,900777,LYNHURST DR,33.732594,-84.488861
900778,900778,SCOTT ST SW ,33.748647,-84.494707
900779,900779,WILKINS LN SW ,33.749293,-84.493969
900796,900796,WYNNWOOD DR ,33.750082,-84.458358
900800,900800,HAMILTON E HOLMES DR NW ,33.769176,-84.472037
900801,900801,HAMILTON E HOLMES DR NW,33.768407,-84.471285
900810,900810,CUSHMAN CIR SW ,33.750743,-84.493972
900816,900816,N CLARENDON AVE ,33.77702,-84.26697
900831,900831,BOULDER PARK DR SW ,33.75106,-84.491037
900840,900840,HOLCOMBE RD,33.764552,-84.233751
900854,900854,JOHN WESLEY DOBBS AVE ,33.758966,-84.373669
900861,900861,FORTYTHREE 75 APARTMENTS,33.734256,-84.532266
900863,900863,DOLLAR MILL RD,33.74378,-84.526491
900864,900864,WILDWOOD LAKE DR,33.743382,-84.518848
900868,900868,CENTENNIAL OLYMPIC PARK DR ,33.76874,-84.392084
900890,900890,RALPH MCGILL BLVD NE,33.763986,-84.37564
900897,900897,UTOY CIR SW,33.74453,-84.527677
900902,900902,HAMILTON E HOLMES DR ,33.770311,-84.473115
900914,900914,IRWIN ST NE ,33.757561,-84.371646
900936,900936,BARFIELD AVE SW ,33.748888,-84.461715
900943,900943,NORTH AVE NE ,33.771277,-84.372648
900947,900947,RALPH MCGILL BLVD,33.763916,-84.371541
900952,900952,SEABOARD AVE NE ,33.758418,-84.349892
900956,900956,WAITS DR,33.751961,-84.521804
900957,900957,ALEX DR,33.751205,-84.520332
900967,900967,TECHWOOD DR NW,33.767693,-84.391741
900979,900979,EMORY DECATUR HOSPITAL,33.790171,-84.282806
900981,900981,BOULDER PARK DR SW,33.75013,-84.504578
900987,900987,BOULDER PARK DR,33.746234,-84.526051
900993,900993,LARCHWOOD ST SW ,33.747501,-84.461049
901016,901016,LYNHURST DR ,33.751011,-84.488157
901020,901020,NORTHERN AVE ,33.777932,-84.244001
901039,901039,RALPH MCGILL BLVD NE ,33.763918,-84.367834
901042,901042,MARIETTA ST NW,33.769363,-84.39899
901052,901052,DELMAR LN NW,33.754863,-84.482101
901055,901055,LINKWOOD RD NW,33.755295,-84.482157
901063,901063,COURTLAND ST NE ,33.759677,-84.384226
901066,901066,INMAN PARK/REYNOLDSTOWN STATION - SOUTH LOOP,33.756635,-84.353111
901078,901078,DOLLAR MILL RD SW,33.745045,-84.5271
901079,901079,DOLLAR MILL RD SW ,33.746177,-84.52791
901089,901089,WELLINGTON ST SW ,33.750927,-84.438281
901094,901094,ENGLISH AVE ,33.768569,-84.413372
901140,901140,HAMILTON E HOLMES STATION - OUTSIDE LOOP,33.754334,-84.470229
901170,901170,WOODLAND AVE NE ,33.813787,-84.347179
901174,901174,JOHNSON RD NE ,33.804651,-84.337984
901175,901175,E EXCHANGE PL ,33.844047,-84.24193
901196,901196,MARTIN L KING J DR SW ,33.754448,-84.48175
901197,901197,N ARCADIA AVE ,33.782303,-84.277328
901198,901198,ARCADIA AVE ,33.779276,-84.279147
901219,901219,PEYTON PL SW ,33.75264,-84.47626
901237,901237,WESTPARK DR ,33.73733,-84.557701
901245,901245,DUNWOODY PARK ,33.92404,-84.311311
901246,901246,TILLY MILL RD,33.936608,-84.288676
901248,901248,BARFIELD AVE ,33.751126,-84.461686
901262,901262,VINE CITY STATION (POSTELL ST),33.756595,-84.403597
901263,901263,VINE CITY STATION (ELECTRIC AVE),33.756545,-84.404411
901270,901270,FREEDOM PKY NE,33.768244,-84.358648
901271,901271,FREEDOM PKY NE ,33.766485,-84.35493
901290,901290,LAGRANGE BLVD ,33.726624,-84.590042
901292,901292,DUNWOODY PARK,33.923941,-84.3113
901321,901321,PEACHTREE ST NE,33.768744,-84.385266
901331,901331,BROWNLEE RD,33.755692,-84.50019
901332,901332,BROWNLEE PL SW,33.754098,-84.500861
901341,901341,ANDERSON AVE SW ,33.75373,-84.445982
901344,901344,PENELOPE RD NW,33.753783,-84.446177
901376,901376,PEACHTREE ST NW ,33.755879,-84.38879
901379,901379,BAKERS FERRY RD ,33.726467,-84.571796
901397,901397,WATERBURY DR NW ,33.755152,-84.447451
901398,901398,WATERBURY DR ,33.75515,-84.448734
901399,901399,VERBENA ST NW ,33.755086,-84.458279
901401,901401,PENELOPE ST NW,33.752838,-84.451514
901417,901417,PEYTON RD SW ,33.747481,-84.476779
901420,901420,NATHAN RD SW,33.750122,-84.501689
901422,901422,NATHAN RD SW ,33.751895,-84.501812
901434,901434,HIGHTOWER RD,33.79272,-84.469332
901436,901436,NORTHWEST DR,33.790817,-84.479996
901437,901437,HOLLYWOOD RD,33.794692,-84.469322
901446,901446,BELLEMEADE AVE ,33.800217,-84.408053
901448,901448,CHATTAHOOCHEE AVE NW,33.805316,-84.433932
901451,901451,CHATTAHOOCHEE AVE,33.809388,-84.43706
901453,901453,ELLSWORTH INDUSTRIAL BLVD ,33.800198,-84.426944
901457,901457,MARIETTA BLVD,33.813314,-84.439355
901459,901459,JAMES JACKSON PKY NW,33.801048,-84.475876
901460,901460,HUFF RD ,33.7882,-84.416485
901461,901461,HUFF RD,33.78761,-84.413418
901467,901467,JOHNSON RD NE,33.798052,-84.348925
901492,901492,CLIFTON RD NE ,33.790008,-84.320906
901505,901505,MONROE DR NE,33.787933,-84.366997
901508,901508,MONROE DR NE ,33.798869,-84.370289
901511,901511,E ROCK SPRINGS RD ,33.79414,-84.34264
901519,901519,N HIGHLAND AVE ,33.79649,-84.35006
901525,901525,E ROCK SPRINGS RD NE ,33.796806,-84.349815
901532,901532,MONTREAL RD,33.828643,-84.258969
901549,901549,JAMES JACKSON PKY ,33.789043,-84.476591
901557,901557,HUFF RD NW,33.787799,-84.41333
901572,901572,N DECATUR RD NE ,33.788648,-84.331738
901595,901595,BRIARCLIFF RD NE,33.813431,-84.333664
901610,901610,E PONCE DE LEON AVE,33.825947,-84.19907
901625,901625,MARY GEORGE AVE NW ,33.801826,-84.459186
901628,901628,HOLLYWOOD RD NW,33.804259,-84.470362
901636,901636,LAWRENCEVILLE,33.817982,-84.267352
901657,901657,LAVISTA RD NE,33.816502,-84.325996
901666,901666,DEFOORS FERRY RD NW ,33.812752,-84.425532
901667,901667,DEFOOR AVE NW ,33.8116,-84.426369
901668,901668,DEFOOR AVE NW,33.810012,-84.426911
901671,901671,BELLEMEADE AVE NW,33.80037,-84.41332
901676,901676,PIEDMONT AVE NE ,33.799479,-84.367897
901677,901677,HUFF RD NW ,33.788863,-84.425991
901679,901679,CHATTAHOOCHEE AVE NW ,33.80074,-84.427029
901723,901723,PIEDMONT AVE NE,33.796811,-84.369266
901734,901734,JULIETTE RD ,33.818004,-84.180571
901742,901742,CHESHIRE BRIDGE RD NE,33.808377,-84.364203
901771,901771,WOODLAND HILLS DR NE ,33.81223,-84.346275
901772,901772,WOODLAND HILLS DR NE,33.812159,-84.346297
901788,901788,DEFOOR AVE,33.802974,-84.420886
901789,901789,ARTS CENTER STATION,33.789283,-84.387125
901801,901801,MALDO DR NW,33.800739,-84.481819
901817,901817,NORTHEAST EXPY NE,33.838306,-84.321274
901848,901848,ATLANTA INDUSTRIAL PKWY,33.79785,-84.4964
901866,901866,HIGHTOWER RD NW ,33.78569,-84.472565
901869,901869,CHANTILLY DR ,33.826873,-84.343287
901871,901871,WOODLAND HILLS DR,33.81326,-84.341706
901908,901908,PIEDMONT RD NE,33.807562,-84.366008
901920,901920,I-85 N,33.840487,-84.310205
901945,901945,PIEDMONT CIR NE ,33.809005,-84.366754
901946,901946,CLIFTON RD,33.80585,-84.335841
901948,901948,CLIFTON RD ,33.801402,-84.331337
901972,901972,ARGYLE DR NW,33.799417,-84.481622
901974,901974,ARGYLE DR NW ,33.799492,-84.478381
902017,902017,BRIDGEPORT DR NW,33.79953,-84.476717
902019,902019,PERRY BLVD,33.790317,-84.440622
902027,902027,CHESHIRE BRIDGE NE,33.810124,-84.359961
902066,902066,BROWNTOWN RD NW ,33.803912,-84.47065
902086,902086,DONALD L HOLLOWELL PKY ,33.784344,-84.488571
902118,902118,ATLANTA INDUSTRIAL PKY,33.790946,-84.496365
902131,902131,MONROE DR,33.799299,-84.370757
902144,902144,LINDBERGH STATION - SOUTH LOOP/LINDBERGH DR,33.821192,-84.36941
902145,902145,LINDBERGH CENTER STATION - NORTH LOOP/MOROSGO DR,33.823072,-84.36995
902159,902159,ATLANTA IND PKWY ,33.796792,-84.495921
902180,902180,MCCALLIE BLVD NW,33.799342,-84.454863
902181,902181,MCCALLIE BLVD NW ,33.800038,-84.457377
902183,902183,AJAX DR NW,33.798461,-84.458886
902221,902221,MOUNTAIN INDUSTRIAL BLVD,33.828638,-84.195988
902224,902224,ATLANTA INDUSTRIAL PKWY NW ,33.796147,-84.495963
902273,902273,BRIDGEPORT DR,33.800166,-84.476718
902276,902276,NORTHSIDE DR NW,33.797085,-84.407804
902290,902290,AJAX DR,33.799301,-84.459878
902354,902354,LAKE AVE NW,33.770616,-84.441887
902380,902380,W LAKE AVE NW ,33.76683,-84.441011
902421,902421,OTTLEY DR,33.807061,-84.383438
902422,902422,PIEDMONT AVE,33.789335,-84.376277
902441,902441,SARR PKY ,33.8339,-84.21359
902480,902480,HIGHTOWER RD NW,33.787788,-84.470459
902481,902481,ATLANTA INDUSTRIAL PKWY ,33.802832,-84.49509
902487,902487,15TH ST NE ,33.788435,-84.384803
902546,902546,NORTHWEST DR NW,33.788421,-84.477257
902581,902581,14TH ST,33.78645,-84.381713
902624,902624,MANSELL RD,34.042604,-84.330572
902641,902641,WINDWARD PARK & RIDE,34.085992,-84.260559
902662,902662,JOHNSON FERRY RD,33.92371,-84.37488
902665,902665,HAMMOND DR NE ,33.918924,-84.363267
902668,902668,ASHFORD DUNWOODY RD ,33.938949,-84.338213
902689,902689,JETT FERRY RD,33.958035,-84.302509
902690,902690,MT VERNON RD ,33.957865,-84.301975
902696,902696,ROSWELL RD NE ,33.902783,-84.378606
902707,902707,HAYNES BRIDGE RD,34.056886,-84.286369
902713,902713,ROSWELL RD ,33.981056,-84.350434
902719,902719,MAIN ST,33.524877,-84.664778
902720,902720,ALPHARETTA ST,34.030607,-84.353944
902725,902725,NORTH SPRINGS STATION,33.945416,-84.357235
902741,902741,PEELER RD,33.936992,-84.286464
902747,902747,ROSWELL RD NE,33.901628,-84.37916
902758,902758,DUNWOODY PARK DR ,33.924049,-84.313904
902763,902763,N PEACHTREE RD,33.922049,-84.296748
902798,902798,NORTH POINT PKY ,34.078163,-84.260696
902806,902806,WINTERS CHAPEL RD,33.939106,-84.269213
902828,902828,PERIMETER CTR E,33.923574,-84.337818
902835,902835,TILLY MILL RD ,33.937093,-84.294462
902841,902841,NORTH POINT PWKY ,34.045385,-84.29407
902864,902864,CHAMBLEE DUNWOODY RD ,33.94609,-84.334411
902867,902867,PERIMETER CTR E ,33.922102,-84.330101
902869,902869,HAMMOND RD NE ,33.918872,-84.357068
902878,902878,PEELER RD ,33.93493,-84.306253
902882,902882,CAROLINE ST ,33.758437,-84.347065
902884,902884,ASHFORD DUNWOODY RD NE,33.920977,-84.338791
902890,902890,PEACHTREE DUNWOODY RD ,33.908537,-84.351944
902934,902934,DUNWOODY CLUB DR,33.959162,-84.300133
902941,902941,GLENDALE RD ,33.787337,-84.254073
902946,902946,CHAPEL ST ,33.786604,-84.256086
902970,902970,DUNWOODY VILLAGE PKY ,33.947607,-84.331618
902990,902990,VIRGINIA AVE NE ,33.782325,-84.355076
903009,903009,DUNWOODY STATION,33.920969,-84.344734
903120,903120,MANSELL PARK & RIDE - ON RAMP,34.03815,-84.313769
903164,903164,SANDY SPRINGS STATION,33.93149,-84.350818
903165,903165,MEDICAL CENTER STATION,33.910569,-84.351215
903177,903177,MANSELL PARK & RIDE - IN LOT,34.038643,-84.313173
903182,903182,INTERSTATE NORTH PKY ,33.909359,-84.431746
903184,903184,JOHNSON FERRY RD NE,33.92218,-84.367583
903230,903230,WILSON MILL RD SW,33.744362,-84.51725
903231,903231,WILDWOOD LAKE DR SW,33.743265,-84.518793
903240,903240,WYNNWOOD DR SW ,33.747791,-84.458321
903261,903261,BURTON RD NW,33.755847,-84.473088
903296,903296,HAMILTON E HOLMES ,33.752336,-84.467482
903298,903298,WESTWOOD AVE SW ,33.738699,-84.439143
903320,903320,HAMILTON E HOLMES STATION - BUS LOOP,33.754259,-84.469058
903324,903324,HOLCOMBE RD ,33.764552,-84.233664
903337,903337,BRIARWOOD RD NE ,33.850458,-84.333648
903391,903391,INDIAN CREEK STATION - INSIDE BUS LOOP,33.769764,-84.229424
903420,903420,WESTWOOD AVE SW,33.738568,-84.444719
903478,903478,MERCURY DR,33.776152,-84.509179
903497,903497,TIGER FLOWERS DR NW ,33.760288,-84.457039
903508,903508,CROFT PL NW,33.775139,-84.508074
903509,903509,CROFT PL NW ,33.774785,-84.505616
903532,903532,COLLIER DR NW,33.763808,-84.476658
903545,903545,COLLIER DR,33.763412,-84.485483
903548,903548,LENA ST ,33.75658,-84.41673
903549,903549,CARTER ST ,33.7564,-84.414
903553,903553,LINKWOOD RD,33.761858,-84.483066
903581,903581,VA HOSPITAL,33.802395,-84.311049
903596,903596,KINGSTON RD,33.779573,-84.494621
903599,903599,BAKERS FERRY RD,33.760499,-84.511791
903603,903603,JAMES P BRAWLEY DR ,33.756257,-84.412784
903651,903651,COLLIER DR NW ,33.76378,-84.477452
903661,903661,FAIRBURN RD NW,33.766962,-84.500107
903671,903671,NORTH DEKALB MALL,33.810021,-84.277388
903679,903679,FAIRLANE DR NW,33.766554,-84.506443
903689,903689,HYACINTH AVE NW ,33.758197,-84.46122
903690,903690,CARVER DR NW ,33.759898,-84.461223
903721,903721,CANDLELIGHT LN,33.757916,-84.519841
903728,903728,BAKERS FERRY RD SW,33.760436,-84.511878
903752,903752,CANDLELIGHT LN ,33.756761,-84.520044
903753,903753,WENDELL DR,33.766602,-84.518242
903756,903756,BAKER RD NW,33.769585,-84.466883
903787,903787,LINKWOOD RD NW ,33.760686,-84.48248
903794,903794,VALLEY BROOK RD,33.80512,-84.267764
903799,903799,CEDAR ST ,33.785465,-84.263092
903802,903802,7TH AVE,33.786497,-84.256282
903857,903857,GLENDALE RD,33.786568,-84.254911
903861,903861,MERCURY DR NW,33.77691,-84.508927
903879,903879,WASHINGTON ST NW ,33.773719,-84.47472
903885,903885,VALLEY BROOK RD ,33.795434,-84.263148
903904,903904,DEKALB INDUSTRIAL WAY,33.79017,-84.276414
903958,903958,CLAIREMONT AVE,33.786907,-84.306618
903968,903968,ALLEGRO DR NW ,33.774607,-84.480539
903971,903971,W PEEK RD NW ,33.773696,-84.485311
903972,903972,CRESCENDO DR NW,33.773949,-84.477145
903974,903974,WASHINGTON ST NW,33.77363,-84.47485
904055,904055,CRESCENDO DR NW ,33.774021,-84.477113
904058,904058,ALLEGRO DR NW,33.774658,-84.482301
904111,904111,FAIRLANE DR,33.766969,-84.501194
904116,904116,BURTON RD NW ,33.755835,-84.481709
904163,904163,BAKER RD NW ,33.769391,-84.4717
904247,904247,HOLLYWOOD DR NW,33.781163,-84.455746
904257,904257,VIRGINIA AVE NE,33.782172,-84.356881
904258,904258,MAYSON AVE NE ,33.757006,-84.338683
904262,904262,DECATUR STATION - BUS LOOP,33.774663,-84.297516
904264,904264,AVONDALE STATION - NORTH LOOP,33.775634,-84.28177
904277,904277,COMMERCE DR,33.77785,-84.296536
904281,904281,EZRA CHURCH DR NW ,33.756542,-84.435506
904285,904285,10TH ST,33.781519,-84.39601
904286,904286,10TH ST NW,33.781467,-84.393324
904307,904307,PONCE DE LEON AVE NE,33.773273,-84.367828
904317,904317,CHARLES ALLEN DR,33.779804,-84.372964
904323,904323,EAST LAKE STATION - SOUTH LOOP,33.764534,-84.31272
904349,904349,10TH ST NW ,33.781469,-84.390083
904364,904364,W TRINITY PL ,33.773455,-84.296679
904452,904452,N MCDONOUGH ST ,33.770316,-84.296674
904464,904464,EDGEWOOD/CANDLER PARK STATION - NORTH LOOP,33.762484,-84.339945
904481,904481,N HIGHLAND AVE N,33.775618,-84.352642
904519,904519,BANKHEAD STATION,33.77206,-84.428677
904521,904521,MARIETTA ST,33.769058,-84.398489
904551,904551,PEACHTREE ST,33.786312,-84.382988
904595,904595,N HIGHLAND AVE NE,33.779729,-84.353281
904642,904642,ASHBY STATION - NORTHBOUND,33.756066,-84.417371
904661,904661,ANDERSON AVE NW ,33.75869,-84.450333
904662,904662,TIGER FLOWERS DR ,33.760133,-84.451004
904665,904665,BRADY AVE,33.783829,-84.412498
904669,904669,10TH ST ,33.781688,-84.410288
904737,904737,W HILL ST ,33.759373,-84.296646
904738,904738,S MCDONOUGH ST,33.760578,-84.296288
904758,904758,8TH ST NE ,33.779446,-84.371191
904760,904760,LA FRANCE ST NE ,33.760523,-84.344967
904800,904800,MIDTOWN STATION,33.78111,-84.386697
904809,904809,MARION PL NE ,33.758446,-84.345184
904832,904832,S MCDONOUGH ST ,33.76966,-84.296485
904880,904880,W LAKE AVE,33.772352,-84.441944
904891,904891,HOLLY RD NW,33.760178,-84.438011
904901,904901,MORELAND AVE NE,33.7721,-84.34885
904948,904948,ASHBY STATION - SOUTHBOUND,33.756281,-84.417724
905050,905050,PONCE DE LEON  AVE NE ,33.77248,-84.377744
905084,905084,HOLLY RD NW ,33.756709,-84.437891
905162,905162,CENTENNIAL OLYMPIC PARK DR,33.7707,-84.39214
905164,905164,PRESIDENTIAL PKY,33.888519,-84.263229
905194,905194,PLEASANTDALE RD,33.895237,-84.239599
905220,905220,MARTIN LUTHER KING JR DR ,33.769672,-84.515999
905239,905239,I-85 ACCESS RD,33.846251,-84.30585
905265,905265,WOODWIN RD ,33.9176,-84.27571
905317,905317,CLAIRMONT RD NE,33.882058,-84.309532
905326,905326,PLEASANTDALE RD ,33.8889,-84.226756
905338,905338,OAKCLIFF RD,33.91024,-84.259386
905375,905375,OAKCLIFF RD ,33.91108,-84.26247
905447,905447,NORTHSIDE PKY NW ,33.847816,-84.429512
905482,905482,SHALLOWFORD RD,33.921247,-84.305581
905485,905485,N SHALLOWFORD RD,33.925534,-84.308914
905508,905508,DORAVILLE STATION,33.902424,-84.280467
905514,905514,CHAMBLEE STATION - EAST LOOP,33.887675,-84.305039
905515,905515,CHAMBLEE STATION - WEST LOOP,33.888495,-84.305504
905616,905616,SKIPPER DR NW,33.777798,-84.490051
905620,905620,HARWELL RD NW,33.780673,-84.494863
905666,905666,LENOX STATION,33.845245,-84.358006
905683,905683,NORTHSIDE PKY NW,33.850212,-84.430214
905697,905697,BROOKHAVEN/OGLETHORPE STATION,33.86025,-84.339147
905709,905709,CHAMBLEE TUCKER ,33.888404,-84.309379
905741,905741,RUFUS EVANS DR ,33.790521,-84.285329
905752,905752,NORTH ATLANTA HIGH SCHOOL,33.866401,-84.442433
905776,905776,PRESIDENTIAL DR,33.88681,-84.257827
905786,905786,SYCAMORE DR ,33.790249,-84.285561
905842,905842,NEW PEACHTREE RD,33.885844,-84.308094
905889,905889,BUCKHEAD STATION - SOUTHBOUND,33.847874,-84.367296
905890,905890,BUCKHEAD STATION - NORTHBOUND,33.847366,-84.367542
905899,905899,HENDERSON MILL,33.879078,-84.248886
905913,905913,CLAIREMONT AVE ,33.789765,-84.306527
905923,905923,KINGSTON RD NW ,33.77981,-84.491088
905924,905924,ALINE DR NW ,33.773029,-84.488942
906022,906022,TUCKER NORCROSS RD,33.882736,-84.219653
906177,906177,PEACHTREE INDUSTRIAL BLVD,33.926911,-84.275018
906327,906327,CHARLES ALLEN DR ,33.781361,-84.37278
906344,906344,TARRAGON WAY,33.749987,-84.519256
906362,906362,MT VERNON HWY,33.924369,-84.377367
906647,906647,AIRPORT STATION,33.640553,-84.446198
907264,907264,NORTHSIDE PKY,33.840584,-84.419528
907473,907473,NORTH AVE STATION,33.77191,-84.38717
907709,907709,WASHINGTON AVE ,33.675514,-84.443634
907775,907775,LINDBERGH CENTER STATION,33.823501,-84.369313
907843,907843,GARNETT STATION,33.748696,-84.395741
907844,907844,COLLEGE PARK STATION,33.650282,-84.448612
907906,907906,WEST LAKE STATION,33.753247,-84.445568
907907,907907,HAMILTON E HOLMES STATION,33.754517,-84.469824
907913,907913,NORTH AVENUE STATION,33.771472,-84.387258
908186,908186,BROOKHAVEN-OGLETHORPE STATION,33.860329,-84.339245
908374,908374,MIDTOWN  STATION,33.781247,-84.386342
908435,908435,DOME-GWCC-PHILIPS ARENA-CNN STATION,33.756179,-84.397215
908437,908437,INMAN PARK-REYNOLDSTOWN STATION,33.757451,-84.352762
908438,908438,AVONDALE STATION,33.775554,-84.281487
908475,908475,DECATUR STATION,33.774699,-84.295417
908476,908476,EDGEWOOD-CANDLER PARK STATION,33.761803,-84.340825
908515,908515,INDIAN CREEK STATION,33.769856,-84.228906
908566,908566,EAST LAKE STATION,33.765241,-84.312937
908603,908603,CHAMBLEE STATION,33.887929,-84.305556
908618,908618,GEORGIA STATE STATION,33.750161,-84.385915
908629,908629,LAKEWOOD-FT MCPHERSON STATION,33.70088,-84.428768
908639,908639,BUCKHEAD STATION,33.847944,-84.367716
908911,908911,CIVIC CENTER STATION,33.766111,-84.387504
908958,908958,VINE CITY STATION,33.756613,-84.403902
908963,908963,ASHBY STATION,33.756478,-84.41723
908976,908976,FIVE POINTS STATION,33.753899,-84.39156
